mission_name,timestamp,BatteryStatus0_current_a,BatteryStatus0_current_average_a,BatteryStatus0_current_filtered_a,BatteryStatus0_discharged_mah,BatteryStatus0_remaining,BatteryStatus0_scale,BatteryStatus0_time_remaining_s,BatteryStatus0_voltage_filtered_v,BatteryStatus0_voltage_v,BatteryStatus1_current_average_a,SensorBaro0_pressure,SensorBaro0_temperature,SensorBaro1_pressure,SensorBaro1_temperature
10min_square_0,1970-01-01 00:11:55,12.897583,14.433923,9.019596,178.78528,0.98974013,1,5431.931,24.362146,24.175,14.850899,99630.72,56.629997,99630.28,42.059998
10min_square_0,1970-01-01 00:12:00,24.218628,15.33236,22.037617,212.40128,0.98821163,1.0053222,5098.7534,23.808638,23.77125,14.557126,99609.96,56.52,99607.61,42.02
10min_square_0,1970-01-01 00:12:05,25.244629,16.35781,25.010895,248.15492,0.9865807,1.005944,4771.577,23.704313,23.67875,14.269165,99560.33,56.46,99558.11,41.98
10min_square_0,1970-01-01 00:12:10,26.07544,17.260683,26.04102,284.28098,0.9849303,1.0077324,4514.7134,23.630014,23.615,13.986899,99558.61,56.66,99554.86,41.94
10min_square_0,1970-01-01 00:12:15,21.76123,18.140953,27.10351,321.66077,0.9832174,1.0088354,4290.8335,23.571445,23.6875,13.7102165,99561.195,56.41,99558.945,41.86
10min_square_0,1970-01-01 00:12:20,24.854248,18.826914,25.003275,356.13397,0.98163265,1.0107298,4126.8394,23.588749,23.59375,13.439009,99556.43,56.55,99558.08,41.78
10min_square_0,1970-01-01 00:12:25,27.281616,19.468029,26.30778,392.96335,0.9799358,1.010824,3983.3918,23.547348,23.512499,13.173165,99557.43,56.6,99559.82,41.69
10min_square_0,1970-01-01 00:12:30,24.503906,20.011051,24.601797,427.51883,0.97833985,1.012417,3870.3516,23.560232,23.564999,12.91258,99549.805,56.379997,99547.44,41.55
10min_square_0,1970-01-01 00:12:35,24.669067,20.476376,24.456799,462.30704,0.9767303,1.0128407,3776.3245,23.554417,23.5525,12.657149,99550.555,56.62,99545.85,41.41
10min_square_0,1970-01-01 00:12:40,25.054443,20.881903,24.900078,496.85583,0.9751303,1.0131553,3696.9587,23.533579,23.5275,12.431584,99556.83,56.489998,99551.87,41.27
10min_square_0,1970-01-01 00:12:45,25.369751,21.338253,25.38098,531.56586,0.97352296,1.0138206,3612.0085,23.503218,23.50375,12.185669,99561.11,56.44,99557.875,41.239998
10min_square_0,1970-01-01 00:12:50,25.650024,21.71043,25.416555,565.0387,0.97197026,1.0140959,3544.4792,23.495565,23.488749,11.944619,99562.47,56.649998,99558.65,41.219997
10min_square_0,1970-01-01 00:12:55,24.368774,22.067757,24.600048,603.0376,0.97020537,1.0148792,3481.2905,23.501335,23.508749,11.708338,99567.055,56.379997,99563.29,41.21
10min_square_0,1970-01-01 00:13:00,25.534912,22.38082,25.770393,637.2377,0.96861744,1.0148869,3426.7256,23.466043,23.471249,11.47673,99560.914,56.539997,99557.87,41.14
10min_square_0,1970-01-01 00:13:05,24.909302,22.634752,25.14614,672.2094,0.9669905,1.0152217,3382.864,23.476774,23.48,11.249704,99556.12,56.59,99553.01,41.04
10min_square_0,1970-01-01 00:13:10,25.16455,22.956654,25.625565,709.19763,0.96527296,1.015723,3329.5334,23.450434,23.467499,11.049222,99556.93,56.34,99553.25,40.969997
10min_square_0,1970-01-01 00:13:15,25.920288,23.129725,25.4295,743.82574,0.9636602,1.0154966,3298.9373,23.461714,23.44125,10.830653,99562.625,56.62,99558.305,40.899998
10min_square_0,1970-01-01 00:13:20,26.255615,23.437326,26.330368,779.3517,0.9620126,1.015952,3250.077,23.423832,23.426249,10.616407,99565.55,56.48,99560.93,40.95
10min_square_0,1970-01-01 00:13:25,25.314697,23.687626,25.727894,816.389,0.96029174,1.0165511,3210.3123,23.427633,23.43875,10.406398,99565.586,56.41,99563.07,40.96
10min_square_0,1970-01-01 00:13:30,25.549927,23.870934,25.404678,850.85315,0.9586891,1.0167413,3180.333,23.432804,23.42875,10.220945,99562.65,56.629997,99559.72,40.95
10min_square_0,1970-01-01 00:13:35,25.865234,24.060617,25.876736,888.3198,0.95694816,1.016791,3149.5012,23.41746,23.414999,10.018759,99557.8,56.37,99557.68,40.91
10min_square_0,1970-01-01 00:13:40,24.083496,24.126476,24.45523,914.7749,0.9557162,1.0174706,3137.3413,23.443943,23.457499,9.859894,99551.8,56.489998,99549.836,40.809998
10min_square_0,1970-01-01 00:13:45,25.394775,24.32279,25.110357,958.8009,0.9536726,1.0178114,3105.0808,23.416197,23.42125,9.626307,99555.87,56.579998,99552.87,40.75
10min_square_0,1970-01-01 00:13:50,26.010376,24.300835,25.604942,991.0842,0.95216817,1.0166289,3102.8206,23.429472,23.40375,9.435884,99561.695,56.32,99556.734,40.69
10min_square_0,1970-01-01 00:13:55,25.720093,24.48001,25.72681,1027.661,0.95047325,1.0175817,3074.7485,23.403158,23.40375,9.2492285,99564.5,56.57,99559.11,40.73
10min_square_0,1970-01-01 00:14:00,25.259644,24.598429,26.248795,1059.4508,0.9489983,1.0176353,3055.343,23.386223,23.4075,9.102567,99563.79,56.399998,99560.695,40.76
10min_square_0,1970-01-01 00:14:05,25.60498,24.731712,25.242561,1100.6265,0.94708765,1.0182446,3032.7078,23.401947,23.394999,8.9046955,99565.11,56.36,99559.55,40.79
10min_square_0,1970-01-01 00:14:10,25.925293,24.799433,25.753681,1134.7855,0.9455026,1.0180844,3019.3035,23.390417,23.3825,8.728546,99556.87,56.62,99552.836,40.76
10min_square_0,1970-01-01 00:14:15,25.775146,24.87203,26.31185,1169.085,0.9439126,1.0179867,3005.483,23.375992,23.38,8.5558815,99560.86,56.379997,99555.03,40.69
10min_square_0,1970-01-01 00:14:20,25.269653,24.988516,25.371807,1207.621,0.94212717,1.0188715,2985.9631,23.383205,23.39,8.386633,99555.65,56.46,99553.484,40.66
10min_square_0,1970-01-01 00:14:25,26.105469,25.02185,25.766447,1243.0221,0.94048625,1.0185758,2976.601,23.378376,23.3675,8.220732,99564.12,56.579998,99558.65,40.6
10min_square_0,1970-01-01 00:14:30,26.610962,25.11521,25.878149,1279.3602,0.93880486,1.0187836,2960.1387,23.3701,23.355,8.074229,99562.836,56.309998,99557.734,40.649998
10min_square_0,1970-01-01 00:14:35,26.04541,25.180666,25.369913,1313.9991,0.93720245,1.0193052,2947.553,23.372988,23.359999,7.9145093,99560.79,56.55,99559.3,40.68
10min_square_0,1970-01-01 00:14:40,25.534912,25.229706,26.024164,1350.5681,0.93551093,1.0191143,2936.6443,23.357882,23.363749,7.757949,99564.54,56.489998,99559.55,40.69
10min_square_0,1970-01-01 00:14:45,32.671875,25.282679,27.60086,1369.8477,0.93462086,1.0183294,2926.0671,23.329187,23.205,7.742464,99563.16,56.579998,99561.36,40.68
10min_square_0,1970-01-01 00:14:50,24.994385,25.38552,24.970516,1423.5046,0.9321409,1.0202308,2908.2654,23.363077,23.3675,7.4540577,99562.44,56.59,99559.18,40.59
10min_square_0,1970-01-01 00:14:55,24.133545,25.331758,24.6441,1457.4406,0.93056977,1.0202438,2909.7104,23.372559,23.383749,7.321219,99554.4,56.399998,99552.66,40.55
10min_square_0,1970-01-01 00:15:00,23.833252,25.3481,26.50848,1493.0255,0.92892706,1.0194283,2902.7734,23.335918,23.38,7.1763935,99564.66,56.41,99561.484,40.45
10min_square_0,1970-01-01 00:15:05,25.84021,25.405766,25.922071,1529.333,0.92725354,1.0201297,2890.524,23.33692,23.335,7.034434,99560.64,56.579998,99556.76,40.44
10min_square_0,1970-01-01 00:15:10,26.235596,25.487179,26.678137,1564.587,0.92563015,1.0201443,2876.1758,23.31389,23.32,6.8952827,99565.51,56.329998,99560.46,40.45
10min_square_0,1970-01-01 00:15:15,25.149536,25.537415,25.477747,1601.6156,0.9239238,1.0209177,2865.4814,23.331635,23.34125,6.758884,99561.12,56.469997,99559.03,40.379997
10min_square_0,1970-01-01 00:15:20,26.615967,25.60813,25.745243,1638.36,0.9222328,1.0212336,2852.0276,23.316156,23.3025,6.6251826,99557.5,56.539997,99552.76,40.309998
10min_square_0,1970-01-01 00:15:25,25.775146,25.590576,25.51989,1673.8381,0.92059684,1.0210981,2849.1042,23.326115,23.31875,6.533169,99562.445,56.3,99563.14,40.21
10min_square_0,1970-01-01 00:15:30,24.889282,25.569138,24.626865,1707.835,0.9190315,1.0216177,2846.8367,23.340652,23.338749,6.3783946,99556.58,56.55,99553.58,40.11
10min_square_0,1970-01-01 00:15:35,26.06543,25.564762,26.378023,1744.1794,0.9173614,1.0210464,2841.8877,23.301588,23.305,6.25222,99566.72,56.44,99563.16,40.02
10min_square_0,1970-01-01 00:15:40,25.745117,25.567877,25.172913,1779.9353,0.9157171,1.0219152,2836.52,23.317259,23.31,6.128541,99562.43,56.329998,99562.266,40.01
10min_square_0,1970-01-01 00:15:45,26.961304,25.655867,26.979406,1814.0931,0.9141511,1.0214474,2821.71,23.274088,23.27125,6.0073094,99566.3,56.57,99560.945,39.969997
10min_square_0,1970-01-01 00:15:50,25.534912,25.64038,25.521166,1851.8159,0.91241693,1.0221615,2818.3672,23.301014,23.29875,5.900252,99561.984,56.35,99562.51,39.91
10min_square_0,1970-01-01 00:15:55,25.755127,25.678883,25.742296,1888.1998,0.9107483,1.0224887,2808.9553,23.286676,23.2875,5.7835364,99555.695,56.41,99556.414,39.84
10min_square_0,1970-01-01 00:16:00,25.279663,25.6796,25.448832,1924.0701,0.90910226,1.0226736,2803.904,23.29113,23.295,5.6691294,99563.53,56.55,99560.12,39.76
10min_square_0,1970-01-01 00:16:05,25.680054,25.609413,24.855024,1957.4943,0.90756756,1.0228268,2806.7395,23.305342,23.283749,5.5569863,99554.35,56.27,99554.04,39.64
10min_square_0,1970-01-01 00:16:10,27.271606,25.641478,27.01954,1994.4552,0.90587634,1.0221633,2797.6663,23.25602,23.24375,5.4470606,99564.266,56.469997,99559.805,39.53
10min_square_0,1970-01-01 00:16:15,25.359741,25.613997,25.059713,2029.8259,0.9042548,1.0233991,2796.0652,23.28575,23.2775,5.33931,99562.68,56.5,99558.93,39.54
10min_square_0,1970-01-01 00:16:20,26.86621,25.688366,26.886726,2066.7188,0.9025696,1.0229625,2782.4646,23.2412,23.238749,5.244158,99569.18,56.27,99563.57,39.54
10min_square_0,1970-01-01 00:16:25,26.595947,25.78186,25.794512,2102.523,0.90093386,1.0241506,2767.4287,23.246069,23.238749,5.150701,99561.61,56.539997,99560.08,39.51
10min_square_0,1970-01-01 00:16:30,25.18457,25.817991,25.928093,2139.7385,0.89923257,1.0240234,2758.6462,23.245045,23.258749,5.0387354,99552.66,56.39,99551.26,39.41
10min_square_0,1970-01-01 00:16:35,26.26062,25.859911,26.333105,2176.439,0.89755666,1.0239878,2748.8215,23.23373,23.2325,4.9390616,99560.945,56.329998,99560.336,39.35
10min_square_0,1970-01-01 00:16:40,24.714111,25.893864,25.114988,2211.5903,0.8959519,1.0249312,2740.6433,23.248161,23.26125,4.8413596,99552.36,56.53,99547.12,39.28
10min_square_0,1970-01-01 00:16:45,27.006348,25.886414,27.30064,2248.3813,0.89427257,1.0237793,2735.8086,23.209597,23.20625,4.755081,99561.79,56.36,99557.57,39.25
10min_square_0,1970-01-01 00:16:50,26.060425,25.889608,25.66487,2284.5676,0.8926221,1.0249283,2730.622,23.23173,23.22375,4.6517158,99555.93,56.36,99558.875,39.26
10min_square_0,1970-01-01 00:16:55,25.444824,25.875532,25.615587,2320.4888,0.8909848,1.0253221,2727.2224,23.223991,23.231249,4.5596976,99563.97,56.52,99559.12,39.34
10min_square_0,1970-01-01 00:17:00,26.545898,25.858406,26.540218,2354.9382,0.889415,1.024846,2723.9858,23.207401,23.20125,4.4695005,99558.35,56.34,99554.82,39.41
10min_square_0,1970-01-01 00:17:05,25.895264,25.895592,25.903223,2392.3115,0.88771456,1.0257156,2715.0178,23.20616,23.207499,4.3810873,99554.75,56.43,99549.53,39.41
10min_square_0,1970-01-01 00:17:10,25.890259,25.904623,26.424984,2428.5908,0.8860638,1.0255411,2709.0273,23.19459,23.199999,4.2944226,99553.22,56.5,99552.64,39.37
10min_square_0,1970-01-01 00:17:15,25.61499,25.820084,24.952816,2463.53,0.8844711,1.0263017,2713.0515,23.220972,23.207499,4.2094727,99544.875,56.32,99547.29,39.27
10min_square_0,1970-01-01 00:17:20,26.676025,25.848883,26.365347,2498.5774,0.88288,1.026162,2704.938,23.181862,23.175,4.1262035,99557.65,56.46,99554.8,39.21
10min_square_0,1970-01-01 00:17:25,26.71106,25.92181,26.618412,2536.4666,0.88116086,1.0263376,2692.0845,23.170166,23.164999,4.044581,99559.21,56.48,99554.68,39.219997
10min_square_0,1970-01-01 00:17:30,26.806152,26.021072,26.814896,2574.1248,0.87945336,1.0268472,2676.6194,23.152376,23.15375,3.9645731,99565.85,56.39,99561.875,39.27
10min_square_0,1970-01-01 00:17:35,26.786133,26.088366,26.887283,2609.991,0.8778261,1.0269065,2664.7935,23.148825,23.14875,3.8861485,99558.586,56.5,99556.89,39.29
10min_square_0,1970-01-01 00:17:40,25.805176,26.09262,25.786245,2646.4653,0.8761706,1.0276806,2659.5347,23.163809,23.1625,3.809275,99553.03,56.48,99546.57,39.2
10min_square_0,1970-01-01 00:17:45,26.04541,26.074356,26.297247,2683.3489,0.87449807,1.027588,2656.265,23.150637,23.154999,3.7413898,99556,56.469997,99551.9,39.12
10min_square_0,1970-01-01 00:17:50,25.770142,26.06744,26.094357,2713.8271,0.87311685,1.027844,2652.8276,23.150763,23.15375,3.6673794,99548.97,56.469997,99552.19,39
10min_square_0,1970-01-01 00:17:55,24.14856,26.044931,24.733063,2754.2441,0.8712862,1.0291239,2649.8784,23.161835,23.18125,3.587658,99561.664,56.5,99558.984,38.98
10min_square_0,1970-01-01 00:18:00,26.200562,26.00919,26.05153,2790.8506,0.86962837,1.0284944,2648.0469,23.136915,23.13125,3.5166888,99561.15,56.48,99558.64,39.03
10min_square_0,1970-01-01 00:18:05,26.04541,26.045322,26.241705,2827.7,0.8679626,1.0288541,2639.347,23.122843,23.12625,3.4471238,99562.305,56.48,99559.305,39.03
10min_square_0,1970-01-01 00:18:10,31.120361,26.083279,28.125908,2864.7642,0.86628705,1.0276384,2629.4048,23.094603,23.0225,3.3789344,99560.79,56.48,99559.62,38.989998
10min_square_0,1970-01-01 00:18:15,26.140503,26.132784,26.115137,2890.1199,0.86514246,1.0297359,2621.965,23.106167,23.109999,3.332006,99556.07,56.48,99553.79,38.94
10min_square_0,1970-01-01 00:18:20,26.615967,26.14356,26.370392,2915.8328,0.86397964,1.0295918,2617.2686,23.101852,23.095,3.2857296,99555.57,56.469997,99554.58,38.87
10min_square_0,1970-01-01 00:18:25,25.680054,26.143793,25.677273,2974.283,0.86133826,1.0302284,2609.4302,23.107883,23.105,3.182354,99553.445,56.46,99552.32,38.78
10min_square_0,1970-01-01 00:18:30,26.555908,26.210258,27.01452,3011.7747,0.8596487,1.0300783,2597.547,23.071243,23.08,3.1194022,99557.805,56.46,99558.29,38.78
10min_square_0,1970-01-01 00:18:35,26.335693,26.216122,26.378883,3046.9941,0.8580595,1.0305543,2592.21,23.079283,23.0775,3.0576956,99561.08,56.469997,99557.89,38.78
10min_square_0,1970-01-01 00:18:40,26.08545,26.20068,25.516548,3084.123,0.8563839,1.031363,2588.7188,23.086435,23.07625,3.0032043,99560.445,56.469997,99560.04,38.78
10min_square_0,1970-01-01 00:18:45,26.796143,26.234291,27.257143,3121.2012,0.8547141,1.0307662,2580.2288,23.048027,23.051249,2.9379208,99557.68,56.469997,99556.12,38.71
10min_square_0,1970-01-01 00:18:50,26.550903,26.248634,26.381578,3156.5825,0.8531199,1.0315535,2574.0593,23.056078,23.05,2.8798044,99557.43,56.46,99554.305,38.62
10min_square_0,1970-01-01 00:18:55,25.880249,26.237715,25.879393,3193.7961,0.8514436,1.0322524,2570.1997,23.054998,23.05625,2.8228376,99555.3,56.469997,99551.14,38.55
10min_square_0,1970-01-01 00:19:00,26.060425,26.191889,26.103443,3228.2942,0.8498894,1.0321434,2569.9526,23.050793,23.047499,2.7669978,99552.484,56.469997,99551.484,38.469997
10min_square_0,1970-01-01 00:19:05,26.150513,26.22791,26.20381,3266.8784,0.8481551,1.0326174,2561.1755,23.036842,23.04125,2.7122626,99557.805,56.44,99557.805,38.469997
10min_square_0,1970-01-01 00:19:10,26.395752,26.233583,26.390533,3302.1243,0.84657043,1.0328184,2555.7905,23.026606,23.025,2.663927,99561.984,56.46,99559.15,38.48
10min_square_0,1970-01-01 00:19:15,25.675049,26.25442,25.834984,3339.7988,0.84487695,1.0335,2548.7976,23.027565,23.03125,2.6060188,99562.55,56.449997,99558.98,38.46
10min_square_0,1970-01-01 00:19:20,25.930298,26.22354,26.022993,3376.0044,0.8432494,1.0336136,2546.828,23.019306,23.019999,2.554468,99558.1,56.449997,99556.43,38.41
10min_square_0,1970-01-01 00:19:25,26.205566,26.207792,25.85868,3412.4106,0.841614,1.0340751,2543.3594,23.013613,23.0075,2.5039368,99554.44,56.449997,99552.93,38.35
10min_square_0,1970-01-01 00:19:30,24.238647,26.270391,25.672754,3448.4192,0.8400004,1.0349576,2532.8247,22.998903,23.035,2.4544053,99552.19,56.46,99548.43,38.3
10min_square_0,1970-01-01 00:19:35,25.424805,26.145403,25.300837,3484.0234,0.8383983,1.0346988,2539.827,23.016006,23.01125,2.4058535,99560.734,56.46,99558.54,38.219997
10min_square_0,1970-01-01 00:19:40,26.425781,26.066607,25.619448,3519.418,0.83680934,1.0347229,2542.4663,23.005896,22.988749,2.3582623,99559.25,56.449997,99553.39,38.219997
10min_square_0,1970-01-01 00:19:45,24.799194,26.081375,26.753094,3554.5132,0.83523846,1.0347363,2536.5754,22.97158,23.00375,2.311612,99559.36,56.449997,99558.445,38.219997
10min_square_0,1970-01-01 00:19:50,26.796143,26.096586,26.127037,3591.9536,0.8335612,1.035433,2529.6223,22.974361,22.96,2.2658849,99561.4,56.449997,99561.516,38.2
10min_square_0,1970-01-01 00:19:55,26.856201,26.101181,26.436266,3628.4612,0.8319267,1.0356604,2524.2073,22.959871,22.94875,2.2210624,99560.21,56.46,99556.11,38.149998
10min_square_0,1970-01-01 00:20:00,25.970337,26.088615,25.888855,3664.7039,0.8303028,1.0363306,2520.6614,22.960934,22.957499,2.1771266,99557.08,56.42,99554.54,38.09
10min_square_0,1970-01-01 00:20:05,24.143555,26.093445,24.908182,3699.7083,0.8287362,1.0375541,2515.7922,22.96236,22.9825,2.1340601,99550.97,56.43,99550.6,38.04
10min_square_0,1970-01-01 00:20:10,26.010376,25.999954,25.904163,3735.524,0.82712924,1.0368164,2519.5654,22.949352,22.9425,2.091845,99560.43,56.44,99558.47,37.98
10min_square_0,1970-01-01 00:20:15,25.259644,26.029432,25.600904,3772.2627,0.8254873,1.0375941,2511.8662,22.940664,22.949999,2.0545661,99557.94,56.43,99551.984,38.01
10min_square_0,1970-01-01 00:20:20,26.130493,26.017502,26.441038,3808.4395,0.8238696,1.0373608,2507.9233,22.920794,22.92375,2.0099041,99562.984,56.44,99560.08,38.02
10min_square_0,1970-01-01 00:20:25,26.400757,25.95563,25.616837,3842.439,0.8223469,1.0377998,2509.1917,22.935486,22.9125,1.9701453,99560.05,56.44,99558.64,38
10min_square_0,1970-01-01 00:20:30,25.960327,26.025831,26.466679,3880.4258,0.8206526,1.0382481,2497.3655,22.899761,22.91,1.931173,99557.234,56.44,99556.37,37.95
10min_square_0,1970-01-01 00:20:35,26.100464,25.983227,25.884636,3916.1382,0.8190545,1.0387363,2496.5542,22.906084,22.901249,1.8929715,99554.625,56.43,99551.195,37.879997
10min_square_0,1970-01-01 00:20:40,25.314697,25.995985,25.274698,3948.2441,0.8176216,1.0396658,2491.1162,22.903208,22.9075,1.8592366,99551.18,56.43,99547.54,37.85
10min_square_0,1970-01-01 00:20:45,26.01538,26.00816,26.892712,3988.3457,0.8158317,1.0388826,2484.3677,22.872505,22.883749,1.8224581,99561.555,56.41,99558.11,37.78
10min_square_0,1970-01-01 00:20:50,26.135498,26.072523,25.630308,4024.191,0.81423354,1.0402772,2473.3696,22.878632,22.8725,1.7828416,99557.87,56.42,99557.87,37.809998
10min_square_0,1970-01-01 00:20:55,27.15149,26.13462,27.378948,4062.9875,0.8125039,1.039505,2462.0715,22.84374,22.84125,1.7475744,99561.086,56.41,99558.94,37.84
10min_square_0,1970-01-01 00:21:00,24.674072,26.0734,24.54607,4097.092,0.810978,1.041517,2463.673,22.883013,22.885,1.7130046,99564.25,56.42,99560.28,37.84
10min_square_0,1970-01-01 00:21:05,25.80017,26.042784,26.090286,4129.4365,0.8095337,1.0407908,2461.959,22.853163,22.85375,1.6791189,99562.43,56.42,99558.78,37.84
10min_square_0,1970-01-01 00:21:10,25.875244,25.97482,25.87616,4169.1597,0.80775887,1.0411656,2462.962,22.851082,22.846249,1.6459035,99562.766,56.43,99561.71,37.84
10min_square_0,1970-01-01 00:21:15,25.910278,25.98041,25.509905,4205.531,0.80613846,1.041899,2457.4866,22.845438,22.838749,1.6133453,99550.28,56.43,99549.86,37.85
10min_square_0,1970-01-01 00:21:20,30.404663,25.973898,27.190098,4240.3765,0.8045856,1.0409716,2452.5195,22.816061,22.74375,1.5814308,99560.94,56.41,99557.75,37.86
10min_square_0,1970-01-01 00:21:25,27.176514,26.038967,27.188131,4259.357,0.8037432,1.041582,2444.4482,22.802277,22.79875,1.5719801,99557.96,56.42,99555.19,37.91
10min_square_0,1970-01-01 00:21:30,27.066406,26.045023,26.43651,4314.7188,0.8012766,1.0424026,2436.4016,22.80623,22.785,1.5194837,99559.1,56.43,99558.875,38.02
10min_square_0,1970-01-01 00:21:35,27.046387,26.0739,27.323809,4350.055,0.79970366,1.0421219,2428.935,22.78597,22.779999,1.4894261,99561.75,56.42,99558.734,38.1
10min_square_0,1970-01-01 00:21:40,25.539917,26.149574,25.71478,4388.286,0.7980039,1.0441189,2417.0508,22.789093,22.79625,1.4599631,99551.58,56.42,99546.87,38.14
10min_square_0,1970-01-01 00:21:45,27.707031,26.11855,27.238937,4424.38,0.7963948,1.0429585,2414.6367,22.76958,22.75375,1.431083,99557.64,56.42,99555.72,38.129997
10min_square_0,1970-01-01 00:21:50,24.854248,26.172838,25.180511,4461.6055,0.794741,1.045111,2405.158,22.782755,22.79625,1.402774,99545.11,56.43,99544.805,38.12
10min_square_0,1970-01-01 00:21:55,21.000488,26.151104,25.397821,4496.248,0.7931994,1.0453362,2403.1912,22.771162,22.856249,1.3750252,99563.66,56.43,99562.08,38.09
10min_square_0,1970-01-01 00:22:00,25.785156,26.125887,25.842363,4533.2393,0.79155433,1.0451492,2399.6404,22.76204,22.765,1.3478252,99599.22,56.42,99598.164,38.17
10min_square_0,1970-01-01 00:22:05,10.064819,25.889,13.9766245,4565.9614,0.7900877,1.0541532,2420,22.916965,23.05625,1.3211634,99629.47,56.44,99626.734,38.28
10min_square_0,1970-01-01 00:22:10,0.9609375,23.658306,0.95521134,4567.7974,0.78986686,1.0551063,2644.2065,23.286531,23.301249,1.2950287,99631.71,56.44,99627.43,38.35
10min_square_0,1970-01-01 00:22:15,0.94091797,23.658306,0.96488994,4567.961,0.78984797,1.0547142,2644.1438,23.294909,23.30875,1.2950287,99627.3,56.42,99628.97,38.37
10min_square_1,1970-01-01 00:18:10,3.543457,14.571699,2.1077676,285.6825,0.6144848,1.0931679,3344.8962,22.440172,22.4,14.940181,99607.234,56.66,99609.93,44.67
10min_square_1,1970-01-01 00:18:15,26.150513,15.113619,27.644257,312.6698,0.61339134,1.085468,3209.6804,21.833708,21.828749,14.644642,99584.375,56.64,99587.516,44.69
10min_square_1,1970-01-01 00:18:20,25.544922,16.468376,26.590126,355.46704,0.6115591,1.0904118,2937.8884,21.762583,21.77375,14.35495,99527.586,56.52,99533.484,44.69
10min_square_1,1970-01-01 00:18:25,26.440796,17.399052,26.586172,391.22653,0.6099747,1.0923638,2773.7107,21.722383,21.71625,14.09913,99530.44,56.75,99529.53,44.64
10min_square_1,1970-01-01 00:18:30,30.254517,18.318708,28.537836,429.6212,0.60824186,1.0927961,2626.287,21.654928,21.59,13.792642,99529.35,56.469997,99530.44,44.539997
10min_square_1,1970-01-01 00:18:35,23.217651,18.988176,24.25937,462.79456,0.60670704,1.0973308,2529.4604,21.690252,21.715,13.519803,99523.65,56.68,99525.55,44.41
10min_square_1,1970-01-01 00:18:40,27.606934,19.644129,27.237959,500.08185,0.60496247,1.0967649,2437.0786,21.612461,21.595,13.252361,99531.336,56.61,99529.86,44.27
10min_square_1,1970-01-01 00:18:45,27.116455,20.409817,27.511015,539.30914,0.6031235,1.0982141,2338.8777,21.57467,21.57625,12.990209,99522.875,56.539997,99527.57,44.14
10min_square_1,1970-01-01 00:18:50,28.102417,21.156336,28.199274,578.7941,0.60126233,1.0993816,2249.3872,21.53024,21.5275,12.733244,99522.71,56.73,99525.445,44.02
10min_square_1,1970-01-01 00:18:55,28.512817,21.779985,28.123545,617.5248,0.59940803,1.100157,2178.323,21.51674,21.498749,12.48136,99529.21,56.449997,99531.875,43.91
10min_square_1,1970-01-01 00:19:00,27.707031,22.37913,28.050423,655.4908,0.5975873,1.1016052,2113.8638,21.489538,21.4925,12.23446,99527.89,56.66,99533.516,43.879997
10min_square_1,1970-01-01 00:19:05,29.07837,22.95007,28.683214,695.79614,0.5956393,1.102132,2054.4385,21.459877,21.44375,11.992444,99533.14,56.61,99534.23,43.84
10min_square_1,1970-01-01 00:19:10,26.89624,23.33823,26.66926,733.5085,0.59378177,1.1040082,2014.4288,21.482365,21.47375,11.755218,99529.586,56.52,99531.85,43.77
10min_square_1,1970-01-01 00:19:15,28.00232,23.7105,28.010677,771.5737,0.5919088,1.104047,1976.4342,21.441341,21.432499,11.522682,99525.47,56.73,99524.695,43.66
10min_square_1,1970-01-01 00:19:20,27.041382,23.998552,27.309214,807.54407,0.5901225,1.1050845,1947.0288,21.441463,21.44125,11.294747,99529.33,56.46,99530.44,43.559998
10min_square_1,1970-01-01 00:19:25,28.713013,24.482248,28.97889,848.8707,0.58810586,1.1054214,1901.8647,21.384588,21.387499,11.071321,99525.75,56.62,99530.35,43.46
10min_square_1,1970-01-01 00:19:30,28.38269,24.847916,28.644478,887.0392,0.58622175,1.106206,1867.9872,21.378836,21.38125,10.852314,99533.28,56.629997,99533.164,43.37
10min_square_1,1970-01-01 00:19:35,26.540894,25.116362,26.435986,925.6643,0.58429587,1.1082313,1842.265,21.404453,21.41,10.63764,99531.71,56.46,99534.984,43.329998
10min_square_1,1970-01-01 00:19:40,27.461792,25.32887,27.390398,964.58105,0.5823477,1.1080811,1820.6176,21.37883,21.377499,10.427211,99531.36,56.71,99535.94,43.28
10min_square_1,1970-01-01 00:19:45,26.095459,25.38479,25.633516,1000.7582,0.5805054,1.1092353,1811.0631,21.408434,21.39625,10.220945,99522.32,56.46,99525.914,43.2
10min_square_1,1970-01-01 00:19:50,26.686035,25.55619,27.765661,1038.6897,0.578607,1.1089652,1792.9757,21.349873,21.37125,10.018759,99527.94,56.579998,99528.73,43.079998
10min_square_1,1970-01-01 00:19:55,27.651978,25.706022,27.625517,1075.1666,0.57677305,1.1093162,1776.7634,21.34706,21.34125,9.820573,99533.96,56.649998,99534.516,42.95
10min_square_1,1970-01-01 00:20:00,27.707031,25.864244,27.453188,1114.1161,0.574818,1.1100326,1759.9243,21.337917,21.33,9.626307,99529.4,56.42,99535.72,42.829998
10min_square_1,1970-01-01 00:20:05,30.765015,26.07632,29.028425,1151.9752,0.572933,1.1095715,1739.5098,21.299871,21.25375,9.435884,99534.21,56.67,99535.336,42.73
10min_square_1,1970-01-01 00:20:10,27.782104,26.191956,27.79086,1176.8732,0.5716871,1.1109171,1728.4747,21.31014,21.30875,9.304834,99531.5,56.449997,99534.195,42.649998
10min_square_1,1970-01-01 00:20:15,29.473755,26.494106,28.975103,1231.1664,0.56898576,1.1111627,1700.5123,21.269722,21.2575,9.066266,99534.03,56.489998,99536.9,42.57
10min_square_1,1970-01-01 00:20:20,25.599976,26.66259,27.265034,1271.2593,0.56697965,1.1132244,1684.3209,21.280022,21.32375,8.886922,99533.98,56.68,99536.44,42.45
10min_square_1,1970-01-01 00:20:25,28.692993,26.7668,28.302889,1310.083,0.5650276,1.1125085,1671.6141,21.263102,21.25375,8.711124,99528.984,56.399998,99530.89,42.32
10min_square_1,1970-01-01 00:20:30,28.462769,26.90943,28.282442,1348.055,0.5631289,1.1130631,1657.2135,21.2527,21.24625,8.538804,99537,56.6,99536.055,42.18
10min_square_1,1970-01-01 00:20:35,29.24353,27.12396,29.02552,1389.5615,0.5610707,1.1133648,1638.0302,21.224417,21.217499,8.369893,99527.695,56.57,99528.97,42.059998
10min_square_1,1970-01-01 00:20:40,30.1344,27.29335,28.930109,1429.9543,0.5590605,1.1139542,1621.948,21.21559,21.19125,8.204324,99532.664,56.39,99533.96,41.969997
10min_square_1,1970-01-01 00:20:45,28.137451,27.39294,27.460238,1469.508,0.5570775,1.1153401,1610.5663,21.232244,21.2225,8.074229,99531.53,56.64,99532.945,41.95
10min_square_1,1970-01-01 00:20:50,28.482788,27.432766,28.193401,1506.8118,0.5552027,1.1151323,1602.7803,21.21436,21.20625,7.8829465,99536.94,56.44,99535.11,41.91
10min_square_1,1970-01-01 00:20:55,27.586914,27.481316,27.994745,1546.5881,0.55320567,1.1158175,1594.3032,21.206774,21.215,7.7270103,99536.32,56.48,99537.14,41.84
10min_square_1,1970-01-01 00:21:00,28.037354,27.619675,28.365799,1587.0018,0.5511995,1.1164998,1580.5284,21.182169,21.19125,7.5741587,99529.53,56.64,99530.8,41.739998
10min_square_1,1970-01-01 00:21:05,28.152466,27.716532,28.535967,1626.9923,0.54920447,1.116672,1569.3026,21.173662,21.18125,7.424331,99536.78,56.37,99536.36,41.629997
10min_square_1,1970-01-01 00:21:10,28.357666,27.823671,28.221828,1665.7397,0.5472797,1.1173577,1557.7704,21.169569,21.17125,7.2774673,99523.71,56.539997,99529.43,41.53
10min_square_1,1970-01-01 00:21:15,30.589844,27.989584,29.983883,1707.8467,0.54520345,1.1166947,1542.4347,21.129782,21.11375,7.2629414,99533.055,56.559998,99533.26,41.469997
10min_square_1,1970-01-01 00:21:20,28.993286,28.092644,29.094976,1748.4205,0.5431904,1.1176014,1531.2881,21.138575,21.13625,6.9923964,99530.66,56.35,99532.94,41.43
10min_square_1,1970-01-01 00:21:25,27.136475,28.209534,28.691252,1787.7406,0.5412482,1.1188391,1519.703,21.126335,21.16,6.8540764,99532.445,56.61,99534.22,41.399998
10min_square_1,1970-01-01 00:21:30,25.454834,27.963207,25.233685,1822.7008,0.5394427,1.1204606,1528.1335,21.198246,21.196249,6.718493,99531.07,56.44,99532.64,41.329998
10min_square_1,1970-01-01 00:21:35,27.506836,27.84956,27.354872,1861.6783,0.5374803,1.1193767,1528.5513,21.15587,21.1475,6.5855904,99529.414,56.41,99529.91,41.239998
10min_square_1,1970-01-01 00:21:40,28.427734,27.908443,28.732988,1901.4467,0.5355178,1.1193397,1519.6631,21.115252,21.119999,6.455318,99531.21,56.62,99530,41.149998
10min_square_1,1970-01-01 00:21:45,30.369629,27.984829,29.328465,1940.0238,0.5336168,1.1192347,1509.9346,21.099453,21.07375,6.327622,99526.04,56.37,99527.76,41.079998
10min_square_1,1970-01-01 00:21:50,28.718018,28.073298,28.46118,1981.162,0.5315925,1.1205455,1499.6527,21.099758,21.0975,6.2024517,99526.484,56.5,99530.65,41.02
10min_square_1,1970-01-01 00:21:55,27.822144,28.093073,27.394627,2020.6493,0.5296385,1.121598,1493.1859,21.111155,21.105,6.0797577,99524.695,56.559998,99527.33,41.01
10min_square_1,1970-01-01 00:22:00,27.907227,28.089085,28.131044,2059.8215,0.52770054,1.1214619,1487.9241,21.09172,21.095,5.9594903,99532.28,56.309998,99533.914,40.98
10min_square_1,1970-01-01 00:22:05,26.555908,27.955097,25.87582,2095.5002,0.5259069,1.1230335,1490.1035,21.128681,21.11875,5.841603,99529.695,56.57,99531.9,40.93
10min_square_1,1970-01-01 00:22:10,29.48877,27.973093,28.737942,2135.6533,0.5239344,1.121542,1483.2511,21.071949,21.05125,5.7260475,99529.64,56.46,99531.445,40.84
10min_square_1,1970-01-01 00:22:15,35.47461,27.982477,29.48279,2175.0269,0.5219991,1.1212018,1476.6471,21.056261,20.936249,5.6127777,99526.72,56.35,99530.9,40.76
10min_square_1,1970-01-01 00:22:20,28.067383,28.027092,27.675467,2213.0073,0.5201408,1.1233919,1469.8291,21.067703,21.06375,5.501749,99520.44,56.59,99524.12,40.69
10min_square_1,1970-01-01 00:22:25,27.55188,28.093355,27.93625,2253.8965,0.51814926,1.1238159,1460.808,21.051617,21.06375,5.392916,99525.21,56.379997,99526.766,40.649998
10min_square_1,1970-01-01 00:22:30,26.26062,27.903263,26.17159,2290.3083,0.51632357,1.1244305,1465.6935,21.092592,21.08625,5.2862363,99520.32,56.39,99524.35,40.629997
10min_square_1,1970-01-01 00:22:35,25.189575,27.890005,28.7447,2310.3303,0.5153444,1.1226959,1463.7202,21.0492,21.10125,5.223244,99527.46,56.53,99531.85,40.62
10min_square_1,1970-01-01 00:22:40,28.728027,27.842236,28.206678,2365.8171,0.5126321,1.1238297,1458.1401,21.043234,21.025,5.079166,99529.375,56.32,99528.875,40.55
10min_square_1,1970-01-01 00:22:45,28.542847,27.921505,28.540527,2406.6528,0.51066285,1.1244794,1448.4427,21.020575,21.0175,4.9786925,99526.1,56.48,99531.89,40.46
10min_square_1,1970-01-01 00:22:50,27.877197,28.028053,28.10762,2447.2058,0.50871444,1.1256928,1437.5103,21.009977,21.02,4.880206,99527.68,56.52,99529.8,40.399998
10min_square_1,1970-01-01 00:22:55,27.471802,27.947927,27.489992,2485.155,0.50685376,1.1258243,1436.392,21.025955,21.025,4.7836685,99522.766,56.28,99524.79,40.27
10min_square_1,1970-01-01 00:23:00,27.616943,27.967104,28.308146,2522.8923,0.50503224,1.1258228,1430.2357,21.00144,21.012499,4.6890407,99521.46,56.55,99518.61,40.219997
10min_square_1,1970-01-01 00:23:05,27.061401,27.876034,26.913115,2561.382,0.50315464,1.1268854,1429.6213,21.022688,21.02,4.596284,99523.36,56.42,99526.47,40.2
10min_square_1,1970-01-01 00:23:10,27.677002,27.87148,27.191742,2600.2761,0.5012809,1.1272066,1424.4668,21.008108,21.00125,4.5053635,99529.36,56.309998,99530.83,40.149998
10min_square_1,1970-01-01 00:23:15,26.846191,27.83213,26.998272,2627.7073,0.49995226,1.1275836,1422.7805,21.006615,21.01125,4.4162407,99527.51,56.559998,99529.11,40.07
10min_square_1,1970-01-01 00:23:20,28.427734,27.86099,28.393639,2677.157,0.4975844,1.1270776,1414.4178,20.974548,20.97,4.328881,99530.05,56.36,99529.01,39.98
10min_square_1,1970-01-01 00:23:25,28.262573,27.893139,27.890224,2716.5461,0.49570245,1.1279107,1407.4642,20.97353,20.96875,4.2432494,99526.94,56.379997,99529.234,39.91
10min_square_1,1970-01-01 00:23:30,27.251587,27.909157,27.753601,2755.7148,0.49383137,1.1284266,1401.45,20.967657,20.97625,4.159312,99518.03,56.539997,99524.26,39.79
10min_square_1,1970-01-01 00:23:35,28.602905,27.969421,28.820698,2794.0376,0.49201512,1.1281198,1393.1586,20.941574,20.9425,4.0770345,99521.125,56.329998,99524.32,39.73
10min_square_1,1970-01-01 00:23:40,28.182495,27.891964,27.66757,2832.727,0.49015304,1.1288451,1391.7742,20.962156,20.945,3.9963846,99525.445,56.43,99529.516,39.719997
10min_square_1,1970-01-01 00:23:45,27.391724,27.956625,27.158367,2872.632,0.48827145,1.1302967,1383.3092,20.949446,20.953749,3.9173305,99527.71,56.52,99532.055,39.69
10min_square_1,1970-01-01 00:23:50,28.672974,27.841484,28.324156,2909.997,0.48647365,1.1288048,1383.7772,20.943235,20.92625,3.8398402,99525.96,56.289997,99533.26,39.64
10min_square_1,1970-01-01 00:23:55,35.73987,27.926092,30.778156,2948.1829,0.48468772,1.1273662,1373.8348,20.897425,20.7875,3.7638826,99525.55,56.449997,99527.41,39.579998
10min_square_1,1970-01-01 00:24:00,29.9292,28.130249,29.99703,2991.6506,0.48267478,1.1294825,1358.785,20.879974,20.88,3.6894274,99527.62,56.46,99530.98,39.54
10min_square_1,1970-01-01 00:24:05,26.94629,28.253853,28.277134,3029.5273,0.4809109,1.1314206,1348.1935,20.894264,20.9275,3.616445,99519.71,56.27,99522.945,39.489998
10min_square_1,1970-01-01 00:24:10,27.456787,28.128124,27.46316,3067.9365,0.47907525,1.1313349,1348.9902,20.920332,20.914999,3.5449066,99527.945,56.52,99529.68,39.399998
10min_square_1,1970-01-01 00:24:15,27.601929,28.02651,26.010504,3102.622,0.47743145,1.132815,1349.2124,20.9355,20.91,3.4817326,99517.766,56.36,99521.08,39.42
10min_square_1,1970-01-01 00:24:20,32.92212,28.2228,31.728718,3134.9922,0.47595865,1.128962,1335.2113,20.838064,20.789999,3.4060469,99511.16,56.48,99515.21,39.43
10min_square_1,1970-01-01 00:24:25,28.763062,28.253942,28.309246,3187.6072,0.47350895,1.1323365,1327.2683,20.875713,20.86875,3.33867,99519.28,56.539997,99523.47,39.399998
10min_square_1,1970-01-01 00:24:30,28.567871,28.212294,28.197063,3227.2356,0.4716548,1.1324044,1324.0369,20.877773,20.86625,3.2726264,99523.586,56.329998,99529.39,39.379997
10min_square_1,1970-01-01 00:24:35,27.651978,28.286993,28.391586,3267.7122,0.46979222,1.1331763,1315.4176,20.857141,20.8725,3.207889,99523.94,56.35,99529.47,39.32
10min_square_1,1970-01-01 00:24:40,28.082397,28.205238,27.626532,3306.0266,0.46799958,1.133578,1314.1489,20.872404,20.8625,3.1444318,99526.96,56.52,99530.54,39.27
10min_square_1,1970-01-01 00:24:45,26.600952,28.150743,27.479042,3342.9985,0.46628428,1.1340597,1311.9998,20.867609,20.885,3.0822303,99519.516,56.32,99520.03,39.21
10min_square_1,1970-01-01 00:24:50,28.19751,28.131577,28.37112,3382.842,0.46444884,1.1336762,1307.5759,20.848183,20.8475,3.0212593,99524.33,56.379997,99528.28,39.149998
10min_square_1,1970-01-01 00:24:55,26.060425,28.090973,26.285433,3421.5068,0.46266726,1.135704,1304.6375,20.87201,20.883749,2.9614944,99521.86,56.51,99524.195,39.149998
10min_square_1,1970-01-01 00:25:00,27.827148,27.966404,27.814905,3457.3577,0.4610061,1.13438,1305.5681,20.851408,20.8475,2.9029117,99528.625,56.289997,99532.94,39.16
10min_square_1,1970-01-01 00:25:05,28.858154,27.910856,28.67851,3496.3936,0.4592154,1.1339042,1302.9839,20.834599,20.821249,2.8454878,99528.234,56.44,99529.44,39.12
10min_square_1,1970-01-01 00:25:10,30.674927,27.969213,29.935493,3534.6716,0.45748627,1.1336966,1295.2069,20.800861,20.779999,2.7891998,99527.65,56.469997,99532.04,39.079998
10min_square_1,1970-01-01 00:25:15,29.939209,28.11383,29.648794,3577.412,0.455569,1.1346667,1283.2257,20.79091,20.78125,2.7340257,99527.445,56.309998,99530.46,39.02
10min_square_1,1970-01-01 00:25:20,28.973267,28.214958,28.946966,3616.5684,0.4538094,1.1356503,1273.7845,20.79319,20.7925,2.6799424,99518.41,56.469997,99523.734,38.96
10min_square_1,1970-01-01 00:25:25,28.763062,28.29754,28.919012,3657.9712,0.45195022,1.1361157,1264.8901,20.785152,20.7875,2.6269293,99524.984,56.46,99526.14,38.899998
10min_square_1,1970-01-01 00:25:30,26.640991,28.280384,26.749104,3697.224,0.4501726,1.137908,1260.8667,20.816149,20.8225,2.5749648,99521.4,56.41,99524.516,38.91
10min_square_1,1970-01-01 00:25:35,28.783081,28.161764,28.52949,3734.9883,0.44845447,1.1364095,1261.1436,20.79124,20.77875,2.524028,99526.16,56.469997,99528.46,38.91
10min_square_1,1970-01-01 00:25:40,27.75708,28.042332,26.883463,3770.989,0.44681907,1.1377081,1261.9773,20.815912,20.797499,2.4740994,99526.555,56.46,99529.4,38.86
10min_square_1,1970-01-01 00:25:45,29.794067,28.153008,29.659359,3812.5984,0.44498366,1.1366845,1251.6816,20.752108,20.7475,2.4251578,99530.125,56.46,99531.555,38.82
10min_square_1,1970-01-01 00:25:50,29.718994,28.279217,29.768959,3853.763,0.44316685,1.1370267,1241.0261,20.742308,20.73875,2.3771846,99530.805,56.46,99532.43,38.77
10min_square_1,1970-01-01 00:25:55,28.417725,28.371565,28.633812,3893.0022,0.441434,1.1385487,1232.271,20.747437,20.755,2.3301604,99526.625,56.449997,99528.836,38.719997
10min_square_1,1970-01-01 00:26:00,25.685059,28.315374,27.193441,3932.5286,0.43966427,1.1395366,1229.9985,20.77192,20.797499,2.284066,99526.36,56.46,99531.3,38.69
10min_square_1,1970-01-01 00:26:05,27.386719,28.225546,27.569906,3970.799,0.43795747,1.1392387,1228.9678,20.76627,20.766249,2.238884,99521.164,56.46,99520.58,38.66
10min_square_1,1970-01-01 00:26:10,28.753052,28.242058,29.40295,4010.4622,0.4362142,1.1383978,1223.2437,20.727228,20.731249,2.1945958,99531.33,56.46,99533.33,38.62
10min_square_1,1970-01-01 00:26:15,27.611938,28.271406,28.208984,4048.736,0.43453434,1.1399244,1217.3687,20.734108,20.744999,2.1511836,99528.47,56.449997,99531.14,38.559998
10min_square_1,1970-01-01 00:26:20,28.958252,28.337833,29.074646,4090.0154,0.4327327,1.1396376,1209.3701,20.71357,20.713749,2.10863,99528.484,56.449997,99530.65,38.5
10min_square_1,1970-01-01 00:26:25,29.193481,28.398628,29.342407,4130.4785,0.4309681,1.1397239,1201.8456,20.703903,20.7025,2.0669181,99526.18,56.449997,99530.766,38.46
10min_square_1,1970-01-01 00:26:30,27.947266,28.398382,27.916254,4170.1187,0.42923433,1.1411816,1197.1257,20.719116,20.71875,2.0260315,99516.47,56.449997,99522.1,38.39
10min_square_1,1970-01-01 00:26:35,29.864136,28.426311,29.863531,4208.631,0.4275609,1.1397432,1191.129,20.687902,20.6775,1.9859536,99525.79,56.44,99531.234,38.3
10min_square_1,1970-01-01 00:26:40,28.84314,28.501522,28.783194,4242.2593,0.42611375,1.1413528,1184.0562,20.689875,20.69125,1.9544629,99525.57,56.44,99527.164,38.32
10min_square_1,1970-01-01 00:26:45,28.743042,28.57141,28.551592,4287.991,0.42414263,1.1419646,1175.7101,20.685278,20.685,1.9081606,99521,56.46,99521.93,38.35
10min_square_1,1970-01-01 00:26:50,28.387695,28.582241,28.75931,4329.631,0.42234418,1.142031,1170.311,20.677794,20.68375,1.8704141,99527.1,56.44,99527.945,38.36
10min_square_1,1970-01-01 00:26:55,27.646973,28.512102,27.64696,4369.307,0.42062187,1.143062,1168.4607,20.691732,20.69375,1.8334147,99527.73,56.449997,99532.41,38.379997
10min_square_1,1970-01-01 00:27:00,27.466797,28.400982,27.483065,4407.4824,0.4189645,1.1432418,1168.416,20.693266,20.69125,1.8007413,99529.086,56.44,99532.9,38.37
10min_square_1,1970-01-01 00:27:05,28.292603,28.36949,28.467873,4446.6885,0.41728345,1.1429477,1164.9496,20.669258,20.67,1.7615968,99522.91,56.42,99527.9,38.37
10min_square_1,1970-01-01 00:27:10,27.937256,28.411968,27.388655,4485.3496,0.41564205,1.1445853,1158.6648,20.670841,20.67,1.7267497,99519.414,56.449997,99521.93,38.379997
10min_square_1,1970-01-01 00:27:15,28.287598,28.389908,28.586527,4525.484,0.41392824,1.1435741,1154.7538,20.653908,20.6575,1.692592,99528.87,56.44,99533.086,38.35
10min_square_1,1970-01-01 00:27:20,26.630981,28.353533,27.014574,4564.584,0.41226274,1.1451123,1151.7142,20.672173,20.68125,1.6591101,99523.01,56.44,99526.78,38.41
10min_square_1,1970-01-01 00:27:25,27.241577,28.27481,28.548391,4601.421,0.41069338,1.1439588,1150.4688,20.647818,20.66375,1.6262906,99528.91,56.43,99533.914,38.45
10min_square_1,1970-01-01 00:27:30,27.031372,28.201391,27.03788,4640.6323,0.409028,1.145504,1148.798,20.664127,20.664999,1.5941201,99532.04,56.449997,99532.41,38.45
10min_square_1,1970-01-01 00:27:35,29.24353,28.172518,29.33677,4679.595,0.40738642,1.1440053,1145.1782,20.623293,20.61875,1.5625861,99528.58,56.43,99534.266,38.41
10min_square_1,1970-01-01 00:27:40,30.049316,28.27247,29.364155,4720.4326,0.40568644,1.1446954,1136.3115,20.609509,20.596249,1.5316758,99530.15,56.449997,99531.76,38.37
10min_square_1,1970-01-01 00:27:45,29.66394,28.417896,29.838104,4760.459,0.4040292,1.1448947,1125.9213,20.591549,20.59125,1.5013771,99523.05,56.44,99528.484,38.329998
10min_square_1,1970-01-01 00:27:50,29.03833,28.483377,29.069061,4801.8867,0.4023033,1.145785,1118.5886,20.597925,20.5975,1.4716778,99525.46,56.44,99529.35,38.27
10min_square_1,1970-01-01 00:27:55,28.047363,28.482151,27.168139,4841.664,0.40064147,1.1477333,1114.0931,20.618507,20.60875,1.4425658,99524.96,56.42,99526.914,38.28
10min_square_1,1970-01-01 00:28:00,32.24646,28.451378,30.007008,4877.908,0.39912522,1.1449865,1110.7477,20.584759,20.529999,1.4140297,99531.75,56.44,99529.65,38.27
10min_square_1,1970-01-01 00:28:05,27.3667,28.443724,27.290464,4917.4204,0.39748448,1.1482954,1106.8575,20.604345,20.60875,1.4112073,99525.75,56.43,99530.69,38.25
10min_square_1,1970-01-01 00:28:10,29.093384,28.434982,29.343266,4959.411,0.39574382,1.146754,1102.215,20.571554,20.571249,1.35864,99526.69,56.43,99530.664,38.21
10min_square_1,1970-01-01 00:28:15,28.107422,28.409113,28.066923,4998.739,0.3941131,1.1480895,1098.7467,20.584892,20.58125,1.3317642,99527.14,56.44,99527.33,38.17
10min_square_1,1970-01-01 00:28:20,28.377686,28.404213,28.499565,5036.762,0.392546,1.1481099,1094.5453,20.571533,20.571249,1.3054199,99519.23,56.44,99523.79,38.14
10min_square_1,1970-01-01 00:28:25,29.22351,28.415236,28.996805,5077.404,0.39087752,1.1480136,1089.4065,20.558414,20.55,1.2795967,99524.53,56.44,99528.01,38.09
10min_square_1,1970-01-01 00:28:30,27.201538,28.270964,27.187023,5114.896,0.3893199,1.149628,1090.7468,20.582615,20.58125,1.2542845,99557.125,56.44,99562.086,38.11
10min_square_1,1970-01-01 00:28:35,27.256592,28.28607,27.965721,5154.574,0.3877053,1.1499425,1085.6401,20.5534,20.57375,1.229473,99600.73,56.42,99602.44,38.129997
10min_square_1,1970-01-01 00:28:40,1.0460205,26.661911,1.2017946,5166.7446,0.3869256,1.1683024,1151.5823,21.020138,21.061249,1.205152,99608.47,56.41,99613.01,38.129997
10min_square_1,1970-01-01 00:28:45,1.0710449,25.609005,1.0577726,5167.589,0.3866787,1.1651804,1195.8666,21.080875,21.092499,1.195559,99609.22,56.42,99613.76,38.129997
10min_square_unstable_end_pilot_takeover,1970-01-01 00:16:00,20.935425,23.884247,16.239212,1331.0408,0.47964776,1.1166096,1590.9008,21.5438,21.387499,7.7115874,99132.87,56.61,99132.12,46.27
10min_square_unstable_end_pilot_takeover,1970-01-01 00:16:05,56.174805,24.465082,38.079605,1373.856,0.47810632,1.1081506,1543.7638,21.05676,20.66125,7.559041,99094.33,56.68,99093.305,46.28
10min_square_unstable_end_pilot_takeover,1970-01-01 00:16:10,29.098389,24.950506,27.756618,1414.5518,0.4765457,1.1205549,1512.1897,21.120708,21.085,7.4095125,99041.484,56.739998,99040.086,46.28
10min_square_unstable_end_pilot_takeover,1970-01-01 00:16:15,32.877075,25.319683,31.477459,1454.1866,0.47497836,1.1197758,1484.8481,21.02436,20.971249,7.2774673,99034.36,56.579998,99033.01,46.25
10min_square_unstable_end_pilot_takeover,1970-01-01 00:16:20,27.55188,25.828575,28.86301,1495.4926,0.47331634,1.1249479,1451.1704,21.001787,21.029999,7.1335073,99039.98,56.809998,99037.586,46.28
10min_square_unstable_end_pilot_takeover,1970-01-01 00:16:25,28.032349,25.955507,26.950678,1534.9272,0.47165427,1.126597,1438.9644,21.027147,20.99625,6.9923964,99040.73,56.539997,99038.71,46.28
10min_square_unstable_end_pilot_takeover,1970-01-01 00:16:30,23.873291,26.028828,24.846094,1572.1776,0.4700648,1.1298505,1430.5402,21.02741,21.05125,6.8540764,99016.97,56.78,99021.54,46.219997
10min_square_unstable_end_pilot_takeover,1970-01-01 00:16:35,29.578857,26.014727,28.904629,1607.6932,0.46852297,1.1269904,1425.995,20.960909,20.9275,6.718493,99041.3,56.55,99039.57,46.079998
10min_square_unstable_end_pilot_takeover,1970-01-01 00:16:40,25.845215,26.184017,25.813839,1646.491,0.46684787,1.1312356,1412.1326,20.97172,20.975,6.5855904,99039.305,56.73,99037.91,45.96
10min_square_unstable_end_pilot_takeover,1970-01-01 00:16:45,27.391724,26.26541,27.683424,1684.2809,0.46519038,1.1304928,1402.6023,20.92992,20.92625,6.4682283,99044.61,56.649998,99044.11,45.879997
10min_square_unstable_end_pilot_takeover,1970-01-01 00:16:50,26.72107,26.411072,26.840591,1723.0995,0.4634887,1.1324399,1389.8506,20.917791,20.92375,6.340277,99044.41,56.649998,99038.85,45.86
10min_square_unstable_end_pilot_takeover,1970-01-01 00:16:55,25.81018,26.484236,26.7328,1755.8667,0.46203494,1.13314,1381.7664,20.907602,20.9275,6.2272863,99039.05,56.69,99035.375,45.87
10min_square_unstable_end_pilot_takeover,1970-01-01 00:17:00,27.036377,26.537256,26.780663,1798.1165,0.46014422,1.1336601,1373.2411,20.896206,20.887499,6.091917,99051.51,56.57,99046.86,45.91
10min_square_unstable_end_pilot_takeover,1970-01-01 00:17:05,31.770996,26.453794,27.131332,1834.1016,0.45850533,1.1330819,1372.1682,20.896759,20.795,5.9714093,99037.83,56.8,99037.21,45.94
10min_square_unstable_end_pilot_takeover,1970-01-01 00:17:10,26.545898,26.534008,26.711866,1871.3903,0.45683482,1.134881,1363.5815,20.874926,20.8725,5.864992,99036.89,56.53,99032.83,45.85
10min_square_unstable_end_pilot_takeover,1970-01-01 00:17:15,27.30664,26.660187,28.512333,1908.821,0.45516267,1.1344829,1352.0962,20.828518,20.84375,5.760472,99051.35,56.76,99053.4,45.809998
10min_square_unstable_end_pilot_takeover,1970-01-01 00:17:20,34.528687,27.118587,29.36896,1954.5735,0.4531637,1.1353123,1322.7458,20.786978,20.696249,5.6352506,99024.945,56.579998,99020.945,45.789997
10min_square_unstable_end_pilot_takeover,1970-01-01 00:17:25,28.62793,27.233978,28.361816,1993.9788,0.45138273,1.1363009,1312.5464,20.798338,20.79125,5.523778,99039.07,56.68,99036.21,45.739998
10min_square_unstable_end_pilot_takeover,1970-01-01 00:17:30,27.401733,27.321344,27.77533,2032.5088,0.44964382,1.1372828,1303.4343,20.797241,20.80375,5.414509,99044.62,56.699997,99039.164,45.739998
10min_square_unstable_end_pilot_takeover,1970-01-01 00:17:35,31.715942,27.393862,31.660467,2071.7668,0.44787225,1.1343265,1294.462,20.737062,20.713749,5.307402,99034.875,56.57,99033.195,45.739998
10min_square_unstable_end_pilot_takeover,1970-01-01 00:17:40,29.328613,27.445198,30.421165,2078.5437,0.4475764,1.1362145,1291.417,20.738205,20.75375,5.2128186,99033.62,56.71,99022.336,45.7
10min_square_unstable_end_pilot_takeover,1970-01-01 00:17:45,29.533813,27.40382,28.829575,2148.448,0.44438633,1.1371198,1284.1251,20.768717,20.74,5.1097016,99023.96,56.51,99021.87,45.559998
10min_square_unstable_end_pilot_takeover,1970-01-01 00:17:50,25.795166,27.375841,25.596542,2185.516,0.4427001,1.1403583,1280.9064,20.80427,20.8025,5.008624,98988.36,56.75,98991.04,45.329998
10min_square_unstable_end_pilot_takeover,1970-01-01 00:17:55,25.274658,27.396292,28.150864,2224.0293,0.44096243,1.1387668,1274.9763,20.75779,20.8,4.909546,99030.72,56.57,99028.945,45.07
10min_square_unstable_end_pilot_takeover,1970-01-01 00:18:00,30.364624,27.68879,32.083668,2266.6716,0.43909457,1.1369761,1255.7278,20.67383,20.695,4.8124275,99025.85,56.649998,99026.125,44.89
10min_square_unstable_end_pilot_takeover,1970-01-01 00:18:05,18.15271,27.515102,26.69597,2301.6355,0.43747646,1.1408542,1260.0964,20.76191,20.9075,4.726665,99044.8,56.719997,99040.21,44.67
10min_square_unstable_end_pilot_takeover,1970-01-01 00:18:10,29.764038,27.563084,29.746311,2341.043,0.43571648,1.1388527,1251.7919,20.708296,20.696249,4.6331644,99046.07,56.539997,99045.9,44.61
10min_square_unstable_end_pilot_takeover,1970-01-01 00:18:15,29.393677,27.920746,30.56541,2384.7485,0.4338212,1.140184,1230.4478,20.6585,20.685,4.541514,99040.08,56.77,99038.336,44.64
10min_square_unstable_end_pilot_takeover,1970-01-01 00:18:20,24.97937,27.882334,25.674694,2423.125,0.43207806,1.1434352,1227.5764,20.743876,20.76,4.4516764,99040.46,56.5,99038.8,44.64
10min_square_unstable_end_pilot_takeover,1970-01-01 00:18:25,28.317627,27.878689,28.905302,2461.2559,0.4303718,1.1415228,1222.5961,20.683002,20.696249,4.3636155,99027.68,56.69,99029.086,44.59
10min_square_unstable_end_pilot_takeover,1970-01-01 00:18:30,24.854248,27.802507,24.910051,2499.0205,0.42866522,1.1449487,1221.3816,20.738377,20.75125,4.2772965,99014.14,56.629997,99012.28,44.489998
10min_square_unstable_end_pilot_takeover,1970-01-01 00:18:35,35.344482,27.841663,33.05089,2538.6123,0.42690513,1.1376524,1213.7461,20.631952,20.557499,4.201071,99032.87,56.559998,99030.96,44.36
10min_square_unstable_end_pilot_takeover,1970-01-01 00:18:40,26.656006,27.617634,25.659306,2574.0383,0.42528257,1.1437831,1219.6816,20.737795,20.713749,4.1262035,99037.18,56.75,99035.414,44.26
10min_square_unstable_end_pilot_takeover,1970-01-01 00:18:45,29.67395,27.63103,28.894361,2612.0818,0.4236061,1.1421381,1214.021,20.671719,20.6525,4.036508,99048.086,56.48,99044.43,44.2
10min_square_unstable_end_pilot_takeover,1970-01-01 00:18:50,29.44873,27.763887,29.939493,2651.058,0.42190644,1.141911,1203.3956,20.64465,20.6425,3.95666,99036.47,56.719997,99038.055,44.26
10min_square_unstable_end_pilot_takeover,1970-01-01 00:18:55,29.143433,27.816334,29.105751,2692.1548,0.4200976,1.1429338,1196.008,20.650381,20.64,3.8783917,99048.39,56.559998,99045.1,44.32
10min_square_unstable_end_pilot_takeover,1970-01-01 00:19:00,31.335571,27.8827,30.575453,2731.2466,0.41838223,1.1419361,1188.1089,20.625097,20.592499,3.809275,99028.87,56.59,99027.234,44.39
10min_square_unstable_end_pilot_takeover,1970-01-01 00:19:05,25.519897,27.804459,24.043043,2767.3977,0.4167737,1.1482644,1187.3595,20.702347,20.695,3.733922,99011.234,56.71,99012.91,44.36
10min_square_unstable_end_pilot_takeover,1970-01-01 00:19:10,27.712036,27.640802,25.17065,2805.4624,0.41507024,1.1470608,1189.3068,20.690996,20.651249,3.6600595,99001.07,56.48,99000.43,44.309998
10min_square_unstable_end_pilot_takeover,1970-01-01 00:19:15,27.201538,27.623594,27.217253,2843.7979,0.41338918,1.1459618,1185.27,20.650167,20.65,3.5948331,99037.25,56.719997,99035.516,44.219997
10min_square_unstable_end_pilot_takeover,1970-01-01 00:19:20,26.716064,27.879074,29.48238,2885.301,0.41162306,1.1458584,1169.4528,20.58415,20.641249,3.5166888,99035.46,56.539997,99032.805,44.14
10min_square_unstable_end_pilot_takeover,1970-01-01 00:19:25,29.338623,27.891855,28.690409,2924.4756,0.409906,1.1458285,1163.8234,20.608469,20.59375,3.4540179,99049.11,56.59,99051.625,44.079998
10min_square_unstable_end_pilot_takeover,1970-01-01 00:19:30,29.148438,28.078802,28.470404,2966.2085,0.4081185,1.14688,1151.065,20.595385,20.5875,3.3856921,99041.336,56.699997,99037.1,44.079998
10min_square_unstable_end_pilot_takeover,1970-01-01 00:19:35,26.89624,28.072151,28.028187,3005.2446,0.4064149,1.1475301,1146.7148,20.5965,20.615,3.318718,99043.89,56.48,99041.8,44.1
10min_square_unstable_end_pilot_takeover,1970-01-01 00:19:40,27.842163,28.080172,27.88267,3043.8145,0.40473822,1.1479023,1141.5818,20.593916,20.595,3.2530692,99034.12,56.73,99029.68,44.12
10min_square_unstable_end_pilot_takeover,1970-01-01 00:19:45,25.469849,28.054045,26.431656,3082.5981,0.4030513,1.1495486,1138.0724,20.606754,20.63,3.1887186,99022.414,56.5,99019.76,44.01
10min_square_unstable_end_pilot_takeover,1970-01-01 00:19:50,36.2854,28.060795,30.762203,3122.1592,0.40133977,1.1452883,1132.0963,20.55644,20.445,3.1256409,99037.586,56.61,99033.65,43.86
10min_square_unstable_end_pilot_takeover,1970-01-01 00:19:55,31.100342,28.24196,30.488981,3163.0532,0.39961022,1.1472354,1120.4156,20.528183,20.515,3.0699384,99042.836,56.68,99041.125,43.84
10min_square_unstable_end_pilot_takeover,1970-01-01 00:20:00,30.324585,28.33717,29.602251,3203.8804,0.39786345,1.1481748,1111.8391,20.537241,20.52125,3.0092106,99038.41,56.469997,99037.055,43.89
10min_square_unstable_end_pilot_takeover,1970-01-01 00:20:05,30.559814,28.51041,30.208977,3230.1438,0.39676479,1.1485356,1102.0277,20.512308,20.508749,2.9614944,99035.87,56.71,99034.18,43.969997
10min_square_unstable_end_pilot_takeover,1970-01-01 00:20:10,31.075317,28.57312,31.717579,3286.7346,0.3943418,1.1473238,1092.8597,20.489672,20.48875,2.891335,99035.57,56.489998,99037.46,44.05
10min_square_unstable_end_pilot_takeover,1970-01-01 00:20:15,28.748047,28.548622,28.11117,3325.4329,0.3926772,1.1505939,1089.3555,20.536928,20.525,2.83414,99039.25,56.62,99039.61,44.1
10min_square_unstable_end_pilot_takeover,1970-01-01 00:20:20,25.484863,28.487795,26.83256,3364.3396,0.391005,1.1521553,1087.2766,20.546312,20.5725,2.7836328,99014.23,56.66,99013.96,44.079998
10min_square_unstable_end_pilot_takeover,1970-01-01 00:20:25,27.201538,28.272549,28.672516,3400.9294,0.38940755,1.1502237,1090.9313,20.526968,20.54125,2.7285686,99029.16,56.469997,99026.734,43.989998
10min_square_unstable_end_pilot_takeover,1970-01-01 00:20:30,28.1875,28.307463,28.661104,3440.9314,0.38772038,1.1511673,1084.7922,20.509779,20.5175,2.6745932,99026.9,56.71,99026.86,43.94
10min_square_unstable_end_pilot_takeover,1970-01-01 00:20:35,29.593872,28.359877,29.040138,3480.4749,0.38605502,1.1511481,1078.0337,20.498764,20.4875,2.621686,99030.28,56.5,99029.12,43.92
10min_square_unstable_end_pilot_takeover,1970-01-01 00:20:40,28.427734,28.404852,28.247911,3520.7146,0.3843623,1.1523929,1071.6987,20.499449,20.5,2.5698252,99036.4,56.61,99035.37,43.95
10min_square_unstable_end_pilot_takeover,1970-01-01 00:20:45,29.759033,28.479969,30.125994,3559.9045,0.3827219,1.1511594,1064.2167,20.46598,20.46625,2.51899,99036.65,56.66,99032.05,44.03
10min_square_unstable_end_pilot_takeover,1970-01-01 00:20:50,29.118408,28.599968,29.07345,3602.224,0.38096,1.1529307,1054.9291,20.464724,20.467499,2.4740994,99029.62,56.46,99027.07,44.079998
10min_square_unstable_end_pilot_takeover,1970-01-01 00:20:55,28.22754,28.800064,31.04155,3645.058,0.37918863,1.1516823,1042.8076,20.428812,20.46875,2.4251578,99029.125,56.71,99026.625,44.079998
10min_square_unstable_end_pilot_takeover,1970-01-01 00:21:00,27.301636,28.83084,27.982008,3685.7517,0.37747955,1.1545687,1037.0681,20.4672,20.48,2.3771846,99019.47,56.5,99018.22,44.04
10min_square_unstable_end_pilot_takeover,1970-01-01 00:21:05,32.25647,28.896568,30.15972,3727.1118,0.37575647,1.1529461,1029.6382,20.43185,20.3925,2.3301604,99028.35,56.59,99027.484,43.98
10min_square_unstable_end_pilot_takeover,1970-01-01 00:21:10,28.42273,28.87893,28.356878,3766.3196,0.37411177,1.1548585,1026.0278,20.450605,20.44875,2.284066,99019.51,56.66,99019.11,43.89
10min_square_unstable_end_pilot_takeover,1970-01-01 00:21:15,31.866089,28.843565,30.929802,3806.1633,0.3724451,1.1526872,1022.46326,20.413542,20.38625,2.2433617,99031,56.44,99030.61,43.84
10min_square_unstable_end_pilot_takeover,1970-01-01 00:21:20,30.624878,28.982021,30.42757,3848.461,0.37071177,1.1541039,1012.94,20.402412,20.39625,2.1989849,99031.664,56.699997,99031.11,43.8
10min_square_unstable_end_pilot_takeover,1970-01-01 00:21:25,30.229492,29.160213,31.485542,3891.5315,0.36895052,1.1538066,1002.0071,20.376163,20.38875,2.1597967,99034.08,56.489998,99032.836,43.829998
10min_square_unstable_end_pilot_takeover,1970-01-01 00:21:30,29.603882,29.252262,29.324337,3932.7834,0.36725253,1.1565078,994.306,20.391201,20.38875,2.112847,99029.484,56.57,99029.8,43.87
10min_square_unstable_end_pilot_takeover,1970-01-01 00:21:35,25.730103,29.188837,24.652403,3972.6914,0.36558223,1.1608477,992.1931,20.451838,20.455,2.0710518,99017.516,56.68,99018.94,43.85
10min_square_unstable_end_pilot_takeover,1970-01-01 00:21:40,29.373657,29.113634,29.826014,4012.3687,0.36392966,1.1561636,990.00745,20.382484,20.387499,2.0300834,99033.945,56.42,99032.305,43.73
10min_square_unstable_end_pilot_takeover,1970-01-01 00:21:45,28.032349,29.071083,27.75437,4051.5842,0.36230695,1.1582172,987.1237,20.406908,20.4025,1.9939052,99026,56.69,99023.39,43.629997
10min_square_unstable_end_pilot_takeover,1970-01-01 00:21:50,27.742065,28.942549,27.77623,4090.292,0.36069587,1.1584513,987.11,20.40196,20.4025,1.9544629,99022.9,56.53,99021.664,43.59
10min_square_unstable_end_pilot_takeover,1970-01-01 00:21:55,30.79004,29.034657,30.34616,4132.119,0.35900018,1.1568276,979.1534,20.35467,20.34375,1.9158007,99035.85,56.539997,99035.805,43.54
10min_square_unstable_end_pilot_takeover,1970-01-01 00:22:00,30.229492,29.285505,29.868013,4176.3506,0.3572336,1.158772,966.0438,20.333328,20.338749,1.8779032,99025.82,56.68,99025.39,43.54
10min_square_unstable_end_pilot_takeover,1970-01-01 00:22:05,30.019287,29.309984,29.210945,4216.8066,0.3555725,1.1589518,960.76404,20.349749,20.335,1.8407556,99032.195,56.43,99029.03,43.559998
10min_square_unstable_end_pilot_takeover,1970-01-01 00:22:10,30.654907,29.333855,30.20082,4258.0957,0.35388604,1.1583434,955.38947,20.3312,20.314999,1.8188206,99022.29,56.69,99019.83,43.55
10min_square_unstable_end_pilot_takeover,1970-01-01 00:22:15,31.37561,29.426798,30.672031,4298.801,0.35224035,1.1586418,947.90283,20.311594,20.29625,1.7721874,99020.266,56.53,99018.98,43.53
10min_square_unstable_end_pilot_takeover,1970-01-01 00:22:20,29.64392,29.382437,29.95751,4340.842,0.35051602,1.1593245,944.7949,20.320526,20.3175,1.7371309,99032.55,56.539997,99027.79,43.54
10min_square_unstable_end_pilot_takeover,1970-01-01 00:22:25,27.266602,29.210575,27.339281,4378.479,0.34895927,1.1619545,946.27527,20.351046,20.352499,1.7061732,99028,56.69,99023.12,43.52
10min_square_unstable_end_pilot_takeover,1970-01-01 00:22:30,28.697998,29.147785,29.090117,4402.0737,0.34799153,1.1604067,945.58734,20.32676,20.32375,1.6757674,99039.016,56.44,99036.79,43.52
10min_square_unstable_end_pilot_takeover,1970-01-01 00:22:35,29.368652,29.127394,29.045528,4458.7866,0.34569478,1.1612208,939.95953,20.313236,20.305,1.6393397,99035.29,56.62,99033.03,43.55
10min_square_unstable_end_pilot_takeover,1970-01-01 00:22:40,28.252563,29.159616,28.863054,4499.0977,0.34407187,1.1623089,934.5864,20.298878,20.311249,1.6069113,99027.875,56.59,99023.8,43.53
10min_square_unstable_end_pilot_takeover,1970-01-01 00:22:45,28.998291,29.19741,29.58558,4540.381,0.3424085,1.1620628,928.81946,20.281685,20.289999,1.575124,99030.125,56.46,99030.03,43.469997
10min_square_unstable_end_pilot_takeover,1970-01-01 00:22:50,27.987305,29.201345,28.034096,4581.2183,0.34075776,1.1638658,924.2812,20.295433,20.297499,1.5439658,99026.945,56.699997,99025.19,43.37
10min_square_unstable_end_pilot_takeover,1970-01-01 00:22:55,28.81311,29.142515,28.972116,4621.1465,0.3391342,1.1631618,921.6786,20.280087,20.2775,1.513424,99026.64,56.44,99025.43,43.239998
10min_square_unstable_end_pilot_takeover,1970-01-01 00:23:00,29.0083,29.033318,28.41132,4659.43,0.33757156,1.1638974,920.86316,20.283543,20.27,1.4834864,99021.12,56.59,99021.61,43.17
10min_square_unstable_end_pilot_takeover,1970-01-01 00:23:05,33.367554,29.051954,30.5664,4700.3477,0.33592993,1.1623878,915.524,20.24634,20.195,1.457049,99029.625,56.62,99029.484,43.09
10min_square_unstable_end_pilot_takeover,1970-01-01 00:23:10,28.387695,29.076302,28.964628,4741.129,0.33429587,1.1648004,910.6208,20.250559,20.258749,1.4282266,99034.53,56.43,99034.61,43.07
10min_square_unstable_end_pilot_takeover,1970-01-01 00:23:15,29.64392,28.981272,28.500237,4780.3804,0.33269852,1.165164,909.15674,20.2579,20.2375,1.3999741,99025.945,56.66,99026.914,43.03
10min_square_unstable_end_pilot_takeover,1970-01-01 00:23:20,29.593872,29.0254,29.670172,4820.6826,0.33108807,1.1649363,903.38635,20.226927,20.225,1.3722806,99028.32,56.48,99026.98,42.95
10min_square_unstable_end_pilot_takeover,1970-01-01 00:23:25,28.642944,29.03208,29.186052,4861.282,0.32945737,1.1659148,898.78925,20.22373,20.23,1.345135,99014.21,56.51,99013.516,42.85
10min_square_unstable_end_pilot_takeover,1970-01-01 00:23:30,27.867188,28.880768,28.126541,4899.5605,0.32789052,1.166963,899.2402,20.236565,20.2375,1.3211634,98989.73,56.66,98993.04,42.71
10min_square_unstable_end_pilot_takeover,1970-01-01 00:23:35,27.056396,28.86485,28.195595,4938.8057,0.32631677,1.1677729,895.46704,20.219872,20.24125,1.2950287,99014.445,56.39,99015.375,42.59
10min_square_unstable_end_pilot_takeover,1970-01-01 00:23:40,27.021362,28.750673,27.642002,4977.421,0.32474867,1.1683171,894.6984,20.226667,20.23625,1.2694111,99016.07,56.61,99014.36,42.45
10min_square_unstable_end_pilot_takeover,1970-01-01 00:23:45,28.122437,28.754927,29.285278,5017.6157,0.32314184,1.1674823,890.072,20.192425,20.20875,1.2443004,99030.695,56.579998,99031.36,42.36
