mission_name,timestamp,BatteryStatus0_current_a,BatteryStatus0_current_average_a,BatteryStatus0_current_filtered_a,BatteryStatus0_discharged_mah,BatteryStatus0_remaining,BatteryStatus0_scale,BatteryStatus0_time_remaining_s,BatteryStatus0_voltage_filtered_v,BatteryStatus0_voltage_v,BatteryStatus1_current_average_a,BatteryStatus1_scale,SensorBaro0_pressure,SensorBaro0_temperature,SensorBaro1_pressure,SensorBaro1_temperature
10min_square_0,1970-01-01 00:11:56,0.9559326,14.832866,0.97004384,175.87947,0.9898722,1.002128,5295.3057,24.51866,24.5175,14.97006,1.28125,99645.47,56.64,99643.14,42.07
10min_square_0,1970-01-01 00:11:58,12.897583,14.433923,9.019596,178.78528,0.98974013,1,5431.931,24.362146,24.175,14.850899,1.28125,99630.72,56.629997,99630.28,42.059998
10min_square_0,1970-01-01 00:12:00,28.332642,14.70977,25.701643,191.17874,0.9891769,1,5316.076,23.904861,23.707499,14.732685,1.28125,99636.79,56.44,99631.8,42.03
10min_square_0,1970-01-01 00:12:02,24.619019,15.200938,25.606075,206.30562,0.9884893,1.003043,5143.87,23.757183,23.762499,14.615412,1.28125,99616.85,56.41,99613.14,42.02
10min_square_0,1970-01-01 00:12:04,27.201538,15.779918,33.605766,223.08464,0.98772603,1.0011508,4950.2817,23.563549,23.64625,14.499073,1.28125,99593.28,56.629997,99592.375,42.01
10min_square_0,1970-01-01 00:12:06,23.242676,16.053411,22.694838,235.69803,0.98714894,1.0070683,4865.78,23.746494,23.748749,14.383659,1.28125,99563.64,56.649998,99558.164,41.989998
10min_square_0,1970-01-01 00:12:08,25.244629,16.35781,25.010895,248.15492,0.9865807,1.005944,4771.577,23.704313,23.67875,14.269165,1.28125,99560.33,56.46,99558.11,41.98
10min_square_0,1970-01-01 00:12:10,26.200562,16.737417,26.310919,262.7297,0.9859159,1.0065298,4660.009,23.651081,23.635,14.155582,1.28125,99560.71,56.41,99556.19,41.969997
10min_square_0,1970-01-01 00:12:12,25.960327,17.083866,25.73609,277.01123,0.98526293,1.0075125,4562.9004,23.644487,23.62875,14.042902,1.28125,99561.39,56.61,99555.47,41.95
10min_square_0,1970-01-01 00:12:14,25.905273,17.432547,25.93251,291.5219,0.98459876,1.008179,4468.919,23.622454,23.615,13.93112,1.28125,99555.26,56.629997,99556.375,41.93
10min_square_0,1970-01-01 00:12:16,26.005371,17.784033,26.030228,306.76608,0.9839002,1.0087396,4377.6943,23.60596,23.59875,13.820227,1.28125,99557.086,56.449997,99555.695,41.899998
10min_square_0,1970-01-01 00:12:18,21.76123,18.140953,27.10351,321.66077,0.9832174,1.0088354,4290.8335,23.571445,23.6875,13.7102165,1.28125,99561.195,56.41,99558.945,41.86
10min_square_0,1970-01-01 00:12:20,25.790161,18.455791,26.469988,336.39108,0.9825415,1.0098232,4213.073,23.5666,23.58,13.601083,1.28125,99561.516,56.6,99557.086,41.829998
10min_square_0,1970-01-01 00:12:22,25.414795,18.727962,25.303606,350.57065,0.9818888,1.01057,4149.421,23.583588,23.58125,13.492818,1.28125,99559.164,56.64,99554.26,41.8
10min_square_0,1970-01-01 00:12:24,24.604004,18.975647,24.896067,364.5404,0.9812453,1.0109229,4093.0698,23.587317,23.59375,13.385414,1.28125,99558.87,56.449997,99557.375,41.76
10min_square_0,1970-01-01 00:12:26,25.359741,19.204254,25.155512,378.42114,0.9806053,1.0108542,4041.5151,23.581186,23.56875,13.305423,1.28125,99559.375,56.399998,99558.125,41.73
10min_square_0,1970-01-01 00:12:28,27.281616,19.468029,26.30778,392.96335,0.9799358,1.010824,3983.3918,23.547348,23.512499,13.173165,1.28125,99557.43,56.6,99559.82,41.69
10min_square_0,1970-01-01 00:12:30,25.279663,19.692095,25.480125,405.89206,0.97933966,1.0117764,3936.5945,23.549269,23.555,13.094441,1.28125,99552.83,56.629997,99553.234,41.64
10min_square_0,1970-01-01 00:12:32,24.719116,19.9077,25.038301,419.94885,0.9786899,1.0121057,3891.7039,23.554611,23.56375,12.96428,1.28125,99549.984,56.46,99550.07,41.579998
10min_square_0,1970-01-01 00:12:34,24.759155,20.103704,24.822544,434.42053,0.9780204,1.0122361,3851.2024,23.557953,23.555,12.861085,1.28125,99558.62,56.41,99552.19,41.52
10min_square_0,1970-01-01 00:12:36,24.624023,20.31442,25.311203,448.64908,0.9773631,1.0124195,3808.8406,23.53889,23.55375,12.75871,1.28125,99554.734,56.61,99550.984,41.469997
10min_square_0,1970-01-01 00:12:38,24.669067,20.476376,24.456799,462.30704,0.9767303,1.0128407,3776.3245,23.554417,23.5525,12.657149,1.28125,99550.555,56.62,99545.85,41.41
10min_square_0,1970-01-01 00:12:40,27.066406,20.6241,24.89126,475.91867,0.9760994,1.0125054,3746.0496,23.549427,23.488749,12.556397,1.28125,99550.55,56.43,99549.43,41.35
10min_square_0,1970-01-01 00:12:42,24.879272,20.69607,24.988035,481.4804,0.97584206,1.012619,3732.8594,23.5438,23.54125,12.469202,1.28125,99553.85,56.379997,99551.48,41.329998
10min_square_0,1970-01-01 00:12:44,31.42566,20.984423,27.013018,504.31296,0.9747857,1.0120167,3675.4133,23.497509,23.36875,12.382007,1.28125,99561.29,56.59,99556.41,41.26
10min_square_0,1970-01-01 00:12:46,25.289673,21.191082,25.694244,518.8167,0.97411454,1.013673,3639.2715,23.497353,23.508749,12.283445,1.28125,99559.05,56.62,99557.22,41.239998
10min_square_0,1970-01-01 00:12:48,25.369751,21.338253,25.38098,531.56586,0.97352296,1.0138206,3612.0085,23.503218,23.50375,12.185669,1.28125,99561.11,56.44,99557.875,41.239998
10min_square_0,1970-01-01 00:12:50,25.58496,21.51305,25.798468,545.98126,0.97285485,1.0137662,3580.1992,23.491995,23.49625,12.088671,1.28125,99562.73,56.399998,99557.3,41.23
10min_square_0,1970-01-01 00:12:52,25.38977,21.666828,25.448277,560.7885,0.9721675,1.0140109,3552.4014,23.496645,23.494999,11.992444,1.28125,99564.44,56.59,99558.93,41.219997
10min_square_0,1970-01-01 00:12:54,25.179565,21.819584,25.403435,575.0618,0.9715052,1.0143309,3525.2537,23.49034,23.49625,11.920778,1.28125,99564.484,56.629997,99560.54,41.23
10min_square_0,1970-01-01 00:12:56,24.864258,21.962782,25.168764,589.28674,0.9708449,1.0146232,3500.0413,23.490389,23.5,11.802284,1.28125,99563.71,56.449997,99559.78,41.219997
10min_square_0,1970-01-01 00:12:58,24.368774,22.067757,24.600048,603.0376,0.97020537,1.0148792,3481.2905,23.501335,23.508749,11.708338,1.28125,99567.055,56.379997,99563.29,41.21
10min_square_0,1970-01-01 00:13:00,25.905273,22.174385,25.144812,616.93304,0.9695592,1.0145732,3461.8008,23.492304,23.46875,11.615139,1.28125,99567.04,56.579998,99562.4,41.2
10min_square_0,1970-01-01 00:13:02,25.589966,22.313557,26.13583,630.05927,0.9689507,1.0144682,3438.197,23.465082,23.47,11.522682,1.28125,99563.82,56.62,99558.71,41.17
10min_square_0,1970-01-01 00:13:04,24.859253,22.450676,25.135744,645.7093,0.9682236,1.0153352,3414.903,23.474377,23.484999,11.430962,1.28125,99555.445,56.44,99554.05,41.11
10min_square_0,1970-01-01 00:13:06,25.029419,22.536423,24.866922,658.224,0.96764094,1.0153269,3399.8406,23.482643,23.48,11.339971,1.28125,99557.98,56.379997,99556.66,41.079998
10min_square_0,1970-01-01 00:13:08,24.909302,22.634752,25.14614,672.2094,0.9669905,1.0152217,3382.864,23.476774,23.48,11.249704,1.28125,99556.12,56.59,99553.01,41.04
10min_square_0,1970-01-01 00:13:10,25.499878,22.762535,25.970413,687.3223,0.9662887,1.0150903,3361.2996,23.455183,23.46,11.182476,1.28125,99563.19,56.61,99561.23,41.01
10min_square_0,1970-01-01 00:13:12,26.050415,22.900726,26.17381,702.03046,0.9656061,1.0153142,3338.5408,23.443735,23.4475,11.093463,1.28125,99557.08,56.42,99557.28,40.969997
10min_square_0,1970-01-01 00:13:14,24.493896,22.9973,24.929611,716.1642,0.96494865,1.0160955,3322.7385,23.462435,23.47875,11.005158,1.28125,99556.16,56.37,99555.086,40.95
10min_square_0,1970-01-01 00:13:16,24.193604,23.06004,24.388912,729.9066,0.964308,1.0162448,3311.6033,23.475098,23.48375,10.917558,1.28125,99557.125,56.579998,99552.664,40.94
10min_square_0,1970-01-01 00:13:18,25.920288,23.129725,25.4295,743.82574,0.9636602,1.0154966,3298.9373,23.461714,23.44125,10.830653,1.28125,99562.625,56.62,99558.305,40.899998
10min_square_0,1970-01-01 00:13:20,26.746094,23.254347,26.536127,758.5452,0.9629776,1.0153818,3278.741,23.431255,23.42,10.744441,1.28125,99564.78,56.42,99560.164,40.91
10min_square_0,1970-01-01 00:13:22,26.841187,23.324274,26.633614,766.0333,0.96263057,1.0155969,3267.7288,23.423203,23.41375,10.701592,1.28125,99564.19,56.35,99561.08,40.94
10min_square_0,1970-01-01 00:13:24,26.125488,23.491552,26.200798,786.65753,0.96167326,1.0160426,3241.4834,23.42556,23.426249,10.57407,1.28125,99563.58,56.579998,99561.43,40.96
10min_square_0,1970-01-01 00:13:26,25.920288,23.589466,25.946402,801.1702,0.96099913,1.0162171,3225.8518,23.429031,23.43,10.489899,1.28125,99563.445,56.61,99560.5,40.969997
10min_square_0,1970-01-01 00:13:28,25.314697,23.687626,25.727894,816.389,0.96029174,1.0165511,3210.3123,23.427633,23.43875,10.406398,1.28125,99565.586,56.41,99563.07,40.96
10min_square_0,1970-01-01 00:13:30,25.875244,23.777657,25.875965,830.9242,0.9596163,1.0165185,3195.783,23.42397,23.425,10.323563,1.28125,99563.98,56.39,99560.04,40.96
10min_square_0,1970-01-01 00:13:32,24.649048,23.847609,25.274658,845.168,0.9589537,1.0168933,3184.5554,23.43309,23.4525,10.241387,1.28125,99564.8,56.59,99560.305,40.969997
10min_square_0,1970-01-01 00:13:34,24.994385,23.9099,25.36613,859.38947,0.95829207,1.016796,3173.9932,23.43266,23.44125,10.159865,1.28125,99562.8,56.6,99560.73,40.96
10min_square_0,1970-01-01 00:13:36,23.958374,23.984537,25.647318,873.7845,0.95762324,1.0167946,3162.2007,23.424257,23.463749,10.09915,1.28125,99561.58,56.399998,99558.75,40.95
10min_square_0,1970-01-01 00:13:38,25.865234,24.060617,25.876736,888.3198,0.95694816,1.016791,3149.5012,23.41746,23.414999,10.018759,1.28125,99557.8,56.37,99557.68,40.91
10min_square_0,1970-01-01 00:13:40,25.099487,24.10921,25.137218,902.4366,0.9562914,1.0172349,3141.2087,23.429087,23.432499,9.939009,1.28125,99556.14,56.579998,99550.086,40.87
10min_square_0,1970-01-01 00:13:42,24.083496,24.126476,24.45523,914.7749,0.9557162,1.0174706,3137.3413,23.443943,23.457499,9.859894,1.28125,99556.71,56.6,99552.43,40.82
10min_square_0,1970-01-01 00:13:44,26.080444,24.149694,25.516954,928.63153,0.9550712,1.0166516,3131.6987,23.43157,23.4075,9.781408,1.28125,99561.44,56.379997,99558.125,40.77
10min_square_0,1970-01-01 00:13:46,26.610962,24.266594,26.8715,944.47455,0.95433825,1.0167006,3114.117,23.389765,23.391249,9.7035475,1.28125,99561.8,56.379997,99557.87,40.75
10min_square_0,1970-01-01 00:13:48,25.394775,24.32279,25.110357,958.8009,0.9536726,1.0178114,3105.0808,23.416197,23.42125,9.626307,1.28125,99555.87,56.579998,99552.87,40.75
10min_square_0,1970-01-01 00:13:50,23.608032,24.298998,23.543716,970.64343,0.95311916,1.0180323,3106.7668,23.457952,23.46625,9.549681,1.28125,99557.18,56.57,99552.766,40.73
10min_square_0,1970-01-01 00:13:52,25.129517,24.275122,24.20905,985.2725,0.9524372,1.0172938,3107.2031,23.455532,23.43125,9.473665,1.28125,99554.15,56.36,99554.36,40.68
10min_square_0,1970-01-01 00:13:54,24.508911,24.360115,26.668322,1000.0273,0.9517547,1.0165806,3094.3225,23.39872,23.435,9.398254,1.28125,99566.625,56.379997,99562.055,40.69
10min_square_0,1970-01-01 00:13:56,25.86023,24.433998,26.280293,1013.36035,0.9511374,1.0173562,3082.6436,23.391914,23.4025,9.323443,1.28125,99564.82,56.57,99558.98,40.7
10min_square_0,1970-01-01 00:13:58,25.720093,24.48001,25.72681,1027.661,0.95047325,1.0175817,3074.7485,23.403158,23.40375,9.2492285,1.28125,99564.5,56.57,99559.11,40.73
10min_square_0,1970-01-01 00:14:00,25.254639,24.509817,25.260887,1040.3833,0.949882,1.0178835,3069.223,23.409967,23.408749,9.175605,1.28125,99566.89,56.36,99560.055,40.739998
10min_square_0,1970-01-01 00:14:02,26.4458,24.584005,26.522936,1056.5349,0.94913334,1.0173446,3057.2722,23.384907,23.38125,9.102567,1.28125,99564.625,56.379997,99561.984,40.76
10min_square_0,1970-01-01 00:14:04,25.259644,24.598429,26.248795,1059.4508,0.9489983,1.0176353,3055.343,23.386223,23.4075,9.039357,1.28125,99563.79,56.399998,99560.695,40.76
10min_square_0,1970-01-01 00:14:06,25.039429,24.711164,25.17363,1086.515,0.94774336,1.0185075,3037.4644,23.397778,23.408749,8.976147,1.28125,99562.28,56.559998,99560.12,40.78
10min_square_0,1970-01-01 00:14:08,25.60498,24.731712,25.242561,1100.6265,0.94708765,1.0182446,3032.7078,23.401947,23.394999,8.9046955,1.28125,99565.11,56.36,99559.55,40.79
10min_square_0,1970-01-01 00:14:10,25.539917,24.753738,25.502165,1114.7566,0.94643146,1.0180326,3027.9312,23.399193,23.39625,8.833813,1.28125,99566.32,56.379997,99561.11,40.78
10min_square_0,1970-01-01 00:14:12,25.0094,24.784473,25.329418,1129.0117,0.9457703,1.0183353,3022.2004,23.397188,23.40625,8.7634945,1.28125,99561.43,56.579998,99557.4,40.77
10min_square_0,1970-01-01 00:14:14,24.14856,24.817352,25.062263,1143.3093,0.9451074,1.0187004,3016.298,23.39655,23.422499,8.693737,1.28125,99554.28,56.57,99552.72,40.76
10min_square_0,1970-01-01 00:14:16,26.435791,24.823673,25.457909,1157.3236,0.9444566,1.0181435,3012.901,23.397884,23.37125,8.624535,1.28125,99554.03,56.37,99551.26,40.73
10min_square_0,1970-01-01 00:14:18,25.775146,24.87203,26.31185,1169.085,0.9439126,1.0179867,3005.483,23.375992,23.38,8.5558815,1.28125,99560.86,56.379997,99555.03,40.69
10min_square_0,1970-01-01 00:14:20,25.524902,24.928581,26.120533,1185.1696,0.9431677,1.0183666,2996.3726,23.372713,23.385,8.487776,1.28125,99564.64,56.579998,99560.695,40.69
10min_square_0,1970-01-01 00:14:22,25.630005,24.980743,25.854366,1200.5425,0.94245565,1.0186994,2987.8457,23.372808,23.38125,8.420213,1.28125,99558.516,56.559998,99553.33,40.68
10min_square_0,1970-01-01 00:14:24,24.799194,24.991413,25.096445,1214.6248,0.94180197,1.0189519,2984.6995,23.38956,23.3975,8.353187,1.28125,99557.266,56.35,99549.66,40.66
10min_square_0,1970-01-01 00:14:26,25.38977,24.999174,25.29676,1228.7123,0.9411488,1.0187036,2981.5647,23.389437,23.38625,8.286695,1.28125,99557.055,56.37,99554.53,40.62
10min_square_0,1970-01-01 00:14:28,26.105469,25.02185,25.766447,1243.0221,0.94048625,1.0185758,2976.601,23.378376,23.3675,8.220732,1.28125,99564.12,56.579998,99558.65,40.6
10min_square_0,1970-01-01 00:14:30,27.011353,25.06627,26.41391,1256.2596,0.93987423,1.0184271,2969.1895,23.362476,23.345,8.155294,1.28125,99566.32,56.559998,99559.234,40.64
10min_square_0,1970-01-01 00:14:32,26.175537,25.10088,25.875845,1269.3309,0.93926954,1.0189028,2963.3938,23.367342,23.36625,8.106559,1.28125,99561.734,56.35,99561.016,40.66
10min_square_0,1970-01-01 00:14:34,26.185547,25.141903,26.33658,1286.738,0.93846405,1.0186381,2956.0286,23.359795,23.3575,8.042029,1.28125,99564.25,56.37,99561.29,40.649998
10min_square_0,1970-01-01 00:14:36,25.700073,25.175285,25.83456,1299.8458,0.93785816,1.0191582,2950.3247,23.362532,23.36875,7.9780145,1.28125,99562.46,56.57,99559.28,40.67
10min_square_0,1970-01-01 00:14:38,26.04541,25.180666,25.369913,1313.9991,0.93720245,1.0193052,2947.553,23.372988,23.359999,7.9145093,1.28125,99560.79,56.55,99559.3,40.68
10min_square_0,1970-01-01 00:14:40,25.61499,25.206812,25.543179,1329.1316,0.93650246,1.019343,2942.4028,23.366896,23.365,7.8515096,1.28125,99562.41,56.35,99559.164,40.68
10min_square_0,1970-01-01 00:14:42,25.765137,25.20886,25.42557,1343.242,0.93584925,1.0193546,2940.0771,23.37015,23.3625,7.7890115,1.28125,99565.96,56.379997,99562.26,40.68
10min_square_0,1970-01-01 00:14:44,25.935303,25.241362,25.922205,1357.7919,0.93517697,1.0193074,2934.1501,23.356367,23.352499,7.742464,1.28125,99565.69,56.579998,99560.83,40.69
10min_square_0,1970-01-01 00:14:46,32.671875,25.282679,27.60086,1369.8477,0.93462086,1.0183294,2926.0671,23.329187,23.205,7.6762938,1.28125,99563.16,56.579998,99561.36,40.68
10min_square_0,1970-01-01 00:14:48,28.963257,25.3330615,26.6357935,1386.02745,0.933873655,1.0191431,2918.79255,23.338866,23.283125,7.6101236,1.28125,99561.1425,56.4799975,99557.313,40.65
10min_square_0,1970-01-01 00:14:50,25.254639,25.383444,25.670727,1402.2072,0.93312645,1.0199568,2911.518,23.348545,23.36125,7.5439534,1.28125,99559.125,56.379997,99553.266,40.62
10min_square_0,1970-01-01 00:14:52,24.98938,25.396994,25.478622,1416.5718,0.93246204,1.0200496,2907.9563,23.352116,23.363749,7.4839034,1.28125,99556.55,56.579998,99553.32,40.61
10min_square_0,1970-01-01 00:14:54,24.954346,25.380295,25.016949,1429.1034,0.9318817,1.0200958,2908.0632,23.364874,23.36875,7.424331,1.28125,99562.64,56.53,99562.414,40.59
10min_square_0,1970-01-01 00:14:56,25.029419,25.359535,24.568617,1442.9897,0.93123895,1.0203699,2908.4146,23.371845,23.36625,7.3652334,1.28125,99560.32,56.329998,99555.07,40.579998
10min_square_0,1970-01-01 00:14:58,24.133545,25.331758,24.6441,1457.4406,0.93056977,1.0202438,2909.7104,23.372559,23.383749,7.321219,1.28125,99554.4,56.399998,99552.66,40.55
10min_square_0,1970-01-01 00:15:00,24.724121,25.325014,25.125656,1471.5114,0.92991984,1.0200398,2908.3157,23.362938,23.37125,7.2629414,1.28125,99554.75,56.59,99556.04,40.489998
10min_square_0,1970-01-01 00:15:02,25.770142,25.321642,25.576965,1485.6349,0.9292675,1.0198373,2906.4219,23.354189,23.34375,7.2051277,1.28125,99562.28,56.52,99557.375,40.469997
10min_square_0,1970-01-01 00:15:04,26.460815,25.357456,26.34297,1500.3085,0.92859143,1.0196882,2900.0564,23.33473,23.3275,7.147774,1.28125,99566.08,56.309998,99562.734,40.469997
10min_square_0,1970-01-01 00:15:06,25.725098,25.384794,25.887934,1514.8514,0.9279213,1.0201113,2895.0166,23.338379,23.345,7.0908775,1.28125,99563.36,56.399998,99559.37,40.45
10min_square_0,1970-01-01 00:15:08,25.84021,25.405766,25.922071,1529.333,0.92725354,1.0201297,2890.524,23.33692,23.335,7.034434,1.28125,99560.64,56.579998,99556.76,40.44
10min_square_0,1970-01-01 00:15:10,25.730103,25.419277,25.72372,1542.2996,0.92665565,1.0203089,2887.1526,23.338636,23.338749,6.97844,1.28125,99559.78,56.5,99556.984,40.46
10min_square_0,1970-01-01 00:15:12,22.762207,25.479485,27.549318,1557.2681,0.92596704,1.0193089,2878.873,23.307518,23.38875,6.922891,1.28125,99565.445,56.309998,99559.18,40.46
10min_square_0,1970-01-01 00:15:14,25.775146,25.508917,26.414965,1572.0007,0.925289,1.0204341,2872.7742,23.314938,23.33,6.88152,1.28125,99564.734,56.43,99558.04,40.43
10min_square_0,1970-01-01 00:15:16,27.086426,25.530716,26.193254,1587.3071,0.92458355,1.0204672,2867.844,23.320807,23.3025,6.8131166,1.28125,99562.26,56.59,99558.086,40.399998
10min_square_0,1970-01-01 00:15:18,25.149536,25.537415,25.477747,1601.6156,0.9239238,1.0209177,2865.4814,23.331635,23.34125,6.758884,1.28125,99561.12,56.469997,99559.03,40.379997
10min_square_0,1970-01-01 00:15:20,25.690063,25.554415,26.052183,1616.1387,0.923255,1.0206254,2861.3853,23.321304,23.32625,6.705083,1.28125,99561.914,56.3,99560.6,40.36
10min_square_0,1970-01-01 00:15:22,26.510864,25.60778,26.521626,1631.1984,0.9225629,1.020709,2853.111,23.305244,23.30625,6.6517096,1.28125,99561.47,56.44,99556.016,40.32
10min_square_0,1970-01-01 00:15:24,25.985352,25.602215,25.530153,1645.4109,0.9219073,1.0211716,2851.8188,23.324072,23.31625,6.5987616,1.28125,99556.836,56.59,99554.41,40.28
10min_square_0,1970-01-01 00:15:26,25.885254,25.598812,25.536482,1659.6626,0.9212501,1.0211345,2850.1858,23.324757,23.31625,6.546235,1.28125,99556.305,56.469997,99553.19,40.23
10min_square_0,1970-01-01 00:15:28,25.775146,25.590576,25.51989,1673.8381,0.92059684,1.0210981,2849.1042,23.326115,23.31875,6.533169,1.28125,99562.445,56.3,99563.14,40.21
10min_square_0,1970-01-01 00:15:30,25.394775,25.617327,25.90481,1687.0726,0.919989,1.0211655,2844.34,23.312975,23.32375,6.455318,1.28125,99555.54,56.449997,99554.016,40.17
10min_square_0,1970-01-01 00:15:32,23.968384,25.589191,24.55498,1700.9442,0.9193492,1.0218375,2845.7976,23.337627,23.359999,6.4039335,1.28125,99557.016,56.579998,99553.64,40.11
10min_square_0,1970-01-01 00:15:34,24.769165,25.546124,24.31183,1714.6476,0.9187174,1.021771,2848.4492,23.346489,23.338749,6.3529577,1.28125,99550.98,56.449997,99550.266,40.07
10min_square_0,1970-01-01 00:15:36,26.07544,25.523808,25.519583,1729.3406,0.91804135,1.0209231,2848.546,23.330252,23.30875,6.302387,1.28125,99558.62,56.28,99554.336,40.03
10min_square_0,1970-01-01 00:15:38,26.06543,25.564762,26.378023,1744.1794,0.9173614,1.0210464,2841.8877,23.301588,23.305,6.25222,1.28125,99566.72,56.44,99563.16,40.02
10min_square_0,1970-01-01 00:15:40,25.640015,25.586525,25.746696,1758.7638,0.9166917,1.0216838,2837.4968,23.305498,23.31375,6.2024517,1.28125,99563.6,56.57,99561,40
10min_square_0,1970-01-01 00:15:42,24.864258,25.578613,25.333439,1772.9178,0.91604024,1.0218501,2836.5269,23.313978,23.32375,6.1530795,1.28125,99564.46,56.44,99560.46,40
10min_square_0,1970-01-01 00:15:44,26.47583,25.56144,25.473818,1787.0055,0.9153918,1.021623,2836.063,23.315115,23.289999,6.1041007,1.28125,99562.914,56.28,99559.5,40.01
10min_square_0,1970-01-01 00:15:46,26.716064,25.608889,26.755312,1801.9718,0.91470623,1.0212549,2828.646,23.285353,23.28125,6.055512,1.28125,99562.01,56.44,99562.375,40.01
10min_square_0,1970-01-01 00:15:48,26.961304,25.655867,26.979406,1814.0931,0.9141511,1.0214474,2821.71,23.274088,23.27125,6.0073094,1.28125,99566.3,56.57,99560.945,39.969997
10min_square_0,1970-01-01 00:15:50,23.973389,25.671215,25.157484,1828.5629,0.9134864,1.0227486,2818.6304,23.298107,23.332499,5.9594903,1.28125,99562.484,56.42,99562.375,39.96
10min_square_0,1970-01-01 00:15:52,25.494873,25.643353,25.386808,1843.9792,0.9127768,1.0221717,2819.1619,23.304802,23.29875,5.912052,1.28125,99566.414,56.28,99559.305,39.94
10min_square_0,1970-01-01 00:15:54,25.975342,25.6436,25.92026,1859.033,0.9120858,1.0219371,2816.8948,23.294321,23.28875,5.876722,1.28125,99562.64,56.449997,99560.32,39.91
10min_square_0,1970-01-01 00:15:56,26.27063,25.668816,26.24452,1873.7278,0.9114125,1.0220408,2811.9912,23.282152,23.27875,5.829943,1.28125,99560.01,56.57,99558.086,39.87
10min_square_0,1970-01-01 00:15:58,25.755127,25.678883,25.742296,1888.1998,0.9107483,1.0224887,2808.9553,23.286676,23.2875,5.7835364,1.28125,99555.695,56.41,99556.414,39.84
10min_square_0,1970-01-01 00:16:00,25.424805,25.691696,25.856565,1902.7177,0.91008246,1.022508,2805.5767,23.282793,23.29125,5.748974,1.28125,99559.23,56.27,99557.875,39.8
10min_square_0,1970-01-01 00:16:02,25.64502,25.682377,25.317087,1916.9475,0.9094291,1.0227833,2804.5298,23.292503,23.2875,5.6918283,1.28125,99561.22,56.449997,99559.15,39.77
10min_square_0,1970-01-01 00:16:04,25.054443,25.678637,25.360197,1931.2242,0.90877426,1.0228113,2803.0464,23.290554,23.29875,5.646521,1.28125,99557.664,56.559998,99555.58,39.739998
10min_square_0,1970-01-01 00:16:06,24.308716,25.654116,24.805351,1945.1995,0.9081328,1.0231119,2803.903,23.300129,23.3125,5.601575,1.28125,99550.19,56.39,99551.05,39.69
10min_square_0,1970-01-01 00:16:08,25.680054,25.609413,24.855024,1957.4943,0.90756756,1.0228268,2806.7395,23.305342,23.283749,5.5569863,1.28125,99554.35,56.27,99554.04,39.64
10min_square_0,1970-01-01 00:16:10,25.6516926666667,25.627182,25.3918793333333,1972.28673333333,0.906890873333333,1.02282593333333,2802.71786666667,23.2892573333333,23.2808326666667,5.5127525,1.28125,99552.375,56.469997,99551.33,39.57
10min_square_0,1970-01-01 00:16:12,25.6233313333333,25.644951,25.9287346666667,1987.07916666667,0.906214186666667,1.02282506666667,2798.69623333333,23.2731726666667,23.2779163333333,5.46887,1.28125,99561.26,56.55,99561.9,39.52
10min_square_0,1970-01-01 00:16:14,25.59497,25.66272,26.46559,2001.8716,0.9055375,1.0228242,2794.6746,23.257088,23.275,5.425338,1.28125,99564.12,56.36,99562.125,39.52
10min_square_0,1970-01-01 00:16:16,24.739136,25.639715,24.869614,2015.8531,0.90489566,1.0236902,2795.3806,23.284618,23.29125,5.382152,1.28125,99565.15,56.289997,99559.96,39.53
10min_square_0,1970-01-01 00:16:18,25.359741,25.613997,25.059713,2029.8259,0.9042548,1.0233991,2796.0652,23.28575,23.2775,5.33931,1.28125,99562.68,56.5,99558.93,39.54
10min_square_0,1970-01-01 00:16:20,26.120483,25.61962,25.945051,2044.2369,0.9035956,1.0229541,2793.249,23.269648,23.26125,5.307402,1.28125,99562.11,56.55,99559.46,39.53
10min_square_0,1970-01-01 00:16:22,27.161499,25.655857,26.905193,2057.667,0.9029825,1.022648,2787.1934,23.248043,23.23375,5.265155,1.28125,99564.03,56.35,99562.8,39.52
10min_square_0,1970-01-01 00:16:24,26.160522,25.706244,26.440355,2074.1252,0.9022313,1.0234017,2779.6433,23.244268,23.25125,5.223244,1.28125,99567.54,56.27,99564.266,39.52
10min_square_0,1970-01-01 00:16:26,20.389893,25.76892,27.089336,2087.7717,0.90160847,1.0231869,2772.2217,23.229845,23.3625,5.181667,1.28125,99567.39,56.48,99563.25,39.51
10min_square_0,1970-01-01 00:16:28,26.595947,25.78186,25.794512,2102.523,0.90093386,1.0241506,2767.4287,23.246069,23.238749,5.150701,1.28125,99561.61,56.539997,99560.08,39.51
10min_square_0,1970-01-01 00:16:30,26.66101,25.800804,25.995325,2117.9185,0.9002298,1.023892,2763.226,23.24611,23.23625,5.0995026,1.28125,99556.984,56.32,99552.086,39.46
10min_square_0,1970-01-01 00:16:32,25.720093,25.81434,26.18557,2132.494,0.8995637,1.0237882,2759.9373,23.24284,23.252499,5.0589104,1.28125,99557.875,56.3,99553.62,39.42
10min_square_0,1970-01-01 00:16:34,26.355713,25.825823,26.298815,2147.0903,0.89889663,1.0237496,2756.5317,23.240349,23.23625,5.018641,1.28125,99555.26,56.489998,99553.3,39.39
10min_square_0,1970-01-01 00:16:36,26.275635,25.846489,26.337942,2161.8113,0.8982246,1.0239244,2752.29,23.235073,23.234999,4.9786925,1.28125,99554.78,56.51,99554.12,39.36
10min_square_0,1970-01-01 00:16:38,26.26062,25.859911,26.333105,2176.439,0.89755666,1.0239878,2748.8215,23.23373,23.2325,4.9390616,1.28125,99560.945,56.329998,99560.336,39.35
10min_square_0,1970-01-01 00:16:40,27.14148,25.911226,27.157234,2191.639,0.89686406,1.0237064,2741.0862,23.215609,23.21,4.8997464,1.28125,99553.016,56.329998,99551.71,39.34
10min_square_0,1970-01-01 00:16:42,25.529907,25.907234,25.518627,2204.5654,0.8962735,1.0247917,2740.0425,23.239319,23.24625,4.860744,1.28125,99551.484,56.5,99546.51,39.3
10min_square_0,1970-01-01 00:16:44,23.95337,25.872353,24.677343,2218.4976,0.89563555,1.0251014,2742.11,23.257303,23.2775,4.8316965,1.28125,99549.94,56.5,99550.65,39.26
10min_square_0,1970-01-01 00:16:46,25.900269,25.839558,25.518139,2232.5327,0.8949939,1.0243881,2743.204,23.24879,23.23625,4.7836685,1.28125,99559.695,56.32,99554.766,39.23
10min_square_0,1970-01-01 00:16:48,27.006348,25.886414,27.30064,2248.3813,0.89427257,1.0237793,2735.8086,23.209597,23.20625,4.755081,1.28125,99561.79,56.36,99557.57,39.25
10min_square_0,1970-01-01 00:16:50,25.700073,25.912062,26.08256,2263.171,0.893599,1.0248564,2731.3223,23.220884,23.2325,4.707815,1.28125,99555.29,56.51,99555.03,39.26
10min_square_0,1970-01-01 00:16:52,26.27063,25.894964,25.873743,2277.4175,0.8929482,1.024706,2731.012,23.230675,23.22,4.6703405,1.28125,99556.94,56.469997,99555.266,39.26
10min_square_0,1970-01-01 00:16:54,25.334717,25.884073,25.546282,2290.252,0.8923627,1.0250254,2730.5642,23.233017,23.23625,4.6331644,1.28125,99560.734,56.289997,99557.82,39.26
10min_square_0,1970-01-01 00:16:56,26.645996,25.871487,26.020882,2306.01,0.8916443,1.0247425,2729.414,23.225405,23.207499,4.596284,1.28125,99566.336,56.39,99562.36,39.3
10min_square_0,1970-01-01 00:16:58,25.444824,25.875532,25.615587,2320.4888,0.8909848,1.0253221,2727.2224,23.223991,23.231249,4.5596976,1.28125,99563.97,56.52,99559.12,39.34
10min_square_0,1970-01-01 00:17:00,24.964355,25.850605,25.089306,2334.573,0.8903422,1.0255939,2727.9797,23.233423,23.2375,4.5234027,1.28125,99561.97,56.449997,99560.555,39.37
10min_square_0,1970-01-01 00:17:02,26.816162,25.8427,26.185486,2347.5066,0.88975286,1.024821,2726.6162,23.218628,23.19875,4.4873962,1.28125,99563.03,56.32,99560.516,39.399998
10min_square_0,1970-01-01 00:17:04,26.005371,25.873291,26.698927,2362.3562,0.8890778,1.024863,2721.503,23.202238,23.21,4.4516764,1.28125,99555.89,56.42,99553.375,39.41
10min_square_0,1970-01-01 00:17:06,26.961304,25.891481,26.632706,2377.0935,0.8884073,1.0250933,2717.3438,23.198833,23.1875,4.4162407,1.28125,99555.41,56.53,99552.016,39.41
10min_square_0,1970-01-01 00:17:08,25.895264,25.895592,25.903223,2392.3115,0.88771456,1.0257156,2715.0178,23.20616,23.207499,4.3810873,1.28125,99554.75,56.43,99549.53,39.41
10min_square_0,1970-01-01 00:17:10,25.965332,25.889929,25.649052,2406.6965,0.88705957,1.0259037,2713.592,23.209385,23.20625,4.3462133,1.28125,99548.35,56.3,99550.71,39.399998
10min_square_0,1970-01-01 00:17:12,25.720093,25.88922,25.746994,2421.1392,0.88640225,1.0259055,2711.7068,23.206406,23.207499,4.3116174,1.28125,99557.016,56.44,99554.43,39.37
10min_square_0,1970-01-01 00:17:14,25.329712,25.90027,25.709753,2435.751,0.8857379,1.0261425,2708.602,23.201984,23.2125,4.2772965,1.28125,99549.336,56.52,99548.33,39.35
10min_square_0,1970-01-01 00:17:16,26.145508,25.861082,24.954319,2449.6833,0.88510245,1.0264307,2710.5815,23.217916,23.195,4.2432494,1.28125,99541.5,56.399998,99538.75,39.309998
10min_square_0,1970-01-01 00:17:18,25.61499,25.820084,24.952816,2463.53,0.8844711,1.0263017,2713.0515,23.220972,23.207499,4.2094727,1.28125,99544.875,56.32,99547.29,39.27
10min_square_0,1970-01-01 00:17:20,26.095459,25.79919,25.343641,2474.7869,0.88395894,1.0260955,2713.5713,23.214067,23.195,4.1759653,1.28125,99550.055,56.449997,99550.914,39.21
10min_square_0,1970-01-01 00:17:22,26.986328,25.841063,26.890442,2491.2583,0.8832124,1.0256113,2706.7087,23.178984,23.17,4.1427245,1.28125,99558.71,56.51,99555.016,39.21
10min_square_0,1970-01-01 00:17:24,26.51587,25.86301,26.522127,2505.9924,0.88254344,1.0261052,2702.4663,23.178486,23.17875,4.1097484,1.28125,99559.914,56.399998,99556.18,39.2
10min_square_0,1970-01-01 00:17:26,26.831177,25.894217,26.831959,2521.6135,0.88183475,1.0260273,2696.9832,23.171013,23.1675,4.0770345,1.28125,99561.15,56.39,99557.37,39.21
10min_square_0,1970-01-01 00:17:28,26.71106,25.92181,26.618412,2536.4666,0.88116086,1.0263376,2692.0845,23.170166,23.164999,4.044581,1.28125,99559.21,56.48,99554.68,39.219997
10min_square_0,1970-01-01 00:17:30,29.268555,25.949326,27.109783,2549.9607,0.8805488,1.0261285,2686.8389,23.160313,23.11125,4.012386,1.28125,99561.08,56.489998,99560.35,39.239998
10min_square_0,1970-01-01 00:17:32,28.883179,25.978067,27.176504,2561.9563,0.88000464,1.0262196,2682.2937,23.156181,23.11625,3.980447,1.28125,99566.945,56.43,99562.93,39.25
10min_square_0,1970-01-01 00:17:34,26.51587,26.036873,26.813313,2581.6062,0.8791138,1.02684,2674.0254,23.152594,23.15625,3.9487627,1.28125,99564.914,56.43,99559.58,39.28
10min_square_0,1970-01-01 00:17:36,27.076416,26.065079,26.813393,2596.5686,0.87843496,1.026915,2668.9602,23.150843,23.14375,3.9173305,1.28125,99565.22,56.51,99559.086,39.29
10min_square_0,1970-01-01 00:17:38,26.786133,26.088366,26.887283,2609.991,0.8778261,1.0269065,2664.7935,23.148825,23.14875,3.8861485,1.28125,99558.586,56.5,99556.89,39.29
10min_square_0,1970-01-01 00:17:40,26.390747,26.107758,26.492285,2624.8262,0.87715334,1.0272994,2660.858,23.151514,23.15375,3.8629248,1.28125,99556.945,56.43,99551.64,39.26
10min_square_0,1970-01-01 00:17:42,25.905273,26.100748,25.834019,2637.836,0.8765625,1.0277098,2659.8772,23.161695,23.16375,3.824527,1.28125,99551.15,56.48,99546.734,39.219997
10min_square_0,1970-01-01 00:17:44,25.8302,26.085203,25.780828,2654.376,0.8758115,1.0276788,2659.1943,23.164017,23.16375,3.7940836,1.28125,99550.46,56.5,99548.234,39.18
10min_square_0,1970-01-01 00:17:46,26.01538,26.060478,25.615429,2668.5996,0.8751656,1.0277635,2659.7114,23.167006,23.1575,3.7638826,1.28125,99554.22,56.469997,99553.89,39.149998
10min_square_0,1970-01-01 00:17:48,26.04541,26.074356,26.297247,2683.3489,0.87449807,1.027588,2656.265,23.150637,23.154999,3.7413898,1.28125,99556,56.469997,99551.9,39.12
10min_square_0,1970-01-01 00:17:50,25.264648,26.073948,25.795822,2697.8875,0.8738392,1.0280668,2654.464,23.154531,23.1675,3.7041998,1.28125,99548.945,56.48,99549.086,39.059998
10min_square_0,1970-01-01 00:17:52,26.020386,26.068079,26.232004,2712.3872,0.87318206,1.0277042,2652.9104,23.149887,23.15,3.674714,1.28125,99550.79,56.489998,99553.21,39.01
10min_square_0,1970-01-01 00:17:54,24.35376,26.07586,25.641766,2725.5562,0.8725864,1.0284582,2650.6492,23.150045,23.18,3.6673794,1.28125,99547.195,56.48,99549.89,38.969997
10min_square_0,1970-01-01 00:17:56,26.170532,26.068653,26.125046,2737.1594,0.8720606,1.0279864,2649.414,23.146526,23.14375,3.6275187,1.28125,99565.234,56.48,99561.32,38.96
10min_square_0,1970-01-01 00:17:58,24.14856,26.044931,24.733063,2754.2441,0.8712862,1.0291239,2649.8784,23.161835,23.18125,3.587658,1.28125,99561.664,56.5,99558.984,38.98
10min_square_0,1970-01-01 00:18:00,26.415771,26.000637,25.700962,2768.2188,0.8706518,1.0281526,2651.9897,23.15538,23.13125,3.5591002,1.28125,99561.68,56.48,99559.33,39.01
10min_square_0,1970-01-01 00:18:02,26.425781,26.010904,26.579233,2783.6152,0.86995566,1.0279498,2648.8235,23.133753,23.12875,3.5307696,1.28125,99563.35,56.48,99558.375,39.02
10min_square_0,1970-01-01 00:18:04,25.965332,26.011559,26.093634,2798.1409,0.8692986,1.028523,2646.8499,23.134985,23.135,3.5026643,1.28125,99564.51,56.48,99559.18,39.03
10min_square_0,1970-01-01 00:18:06,28.783081,26.027748,26.82415,2811.5264,0.86869365,1.028159,2642.795,23.121536,23.078749,3.4747832,1.28125,99566.336,56.48,99563.46,39.04
10min_square_0,1970-01-01 00:18:08,26.04541,26.045322,26.241705,2827.7,0.8679626,1.0288541,2639.347,23.122843,23.12625,3.4471238,1.28125,99562.305,56.48,99559.305,39.03
10min_square_0,1970-01-01 00:18:10,26.08545,26.06533,26.378853,2842.5403,0.867292,1.0289612,2635.279,23.116241,23.12125,3.4196846,1.28125,99566.61,56.48,99560.875,39.02
10min_square_0,1970-01-01 00:18:12,27.196533,26.055367,26.445408,2856.986,0.8666378,1.0287465,2634.0718,23.119236,23.09875,3.3924634,1.28125,99563.086,56.46,99560.78,39.01
10min_square_0,1970-01-01 00:18:14,27.026367,26.106644,27.110237,2872.2634,0.865949,1.0288273,2626.8535,23.097408,23.095,3.3654592,1.28125,99562.72,56.48,99557.79,38.98
10min_square_0,1970-01-01 00:18:16,25.960327,26.13616,26.541212,2885.7793,0.865339,1.0294611,2622.2585,23.09976,23.115,3.33867,1.28125,99557.62,56.489998,99554.73,38.95
10min_square_0,1970-01-01 00:18:18,26.140503,26.132784,26.115137,2890.1199,0.86514246,1.0297359,2621.965,23.106167,23.109999,3.332006,1.28125,99556.07,56.48,99553.79,38.94
10min_square_0,1970-01-01 00:18:20,26.615967,26.14356,26.370392,2915.8328,0.86397964,1.0295918,2617.2686,23.101852,23.095,3.2857296,1.28125,99558.47,56.48,99556.51,38.899998
10min_square_0,1970-01-01 00:18:22,26.5809325,26.1695315,26.549202,2929.3504,0.863369645,1.02961185,2612.8417,23.0960225,23.093125,3.25978273333333,1.28125,99562.375,56.469997,99559.234,38.87
10min_square_0,1970-01-01 00:18:24,26.545898,26.195503,26.728012,2942.868,0.86275965,1.0296319,2608.4148,23.090193,23.09125,3.23383586666667,1.28125,99554.16,56.489998,99551.1,38.85
10min_square_0,1970-01-01 00:18:26,25.775146,26.171635,25.526188,2960.0625,0.8619818,1.0304135,2608.5884,23.108122,23.10125,3.207889,1.28125,99550.43,56.469997,99549.22,38.8
10min_square_0,1970-01-01 00:18:28,25.680054,26.143793,25.677273,2974.283,0.86133826,1.0302284,2609.4302,23.107883,23.105,3.182354,1.28125,99553.445,56.46,99552.32,38.78
10min_square_0,1970-01-01 00:18:30,31.35559,26.151594,27.44194,2989.1528,0.8606676,1.0291166,2605.4937,23.080738,22.98625,3.157022,1.28125,99558.8,56.46,99559.48,38.76
10min_square_0,1970-01-01 00:18:32,27.11145,26.191158,27.187967,3004.205,0.8599897,1.0298108,2600.359,23.072243,23.07,3.131892,1.28125,99559.01,56.46,99556.43,38.77
10min_square_0,1970-01-01 00:18:34,25.875244,26.21441,26.441452,3017.6711,0.8593828,1.030554,2596.4678,23.077412,23.09125,3.106962,1.28125,99556.125,56.48,99555.11,38.78
10min_square_0,1970-01-01 00:18:36,26.801147,26.214024,26.267595,3032.3352,0.85872096,1.0305661,2594.3235,23.082348,23.07375,3.0822303,1.28125,99558.734,56.46,99556.15,38.79
10min_square_0,1970-01-01 00:18:38,26.335693,26.216122,26.378883,3046.9941,0.8580595,1.0305543,2592.21,23.079283,23.0775,3.0576956,1.28125,99561.08,56.469997,99557.89,38.78
10min_square_0,1970-01-01 00:18:40,26.49585,26.233412,26.459349,3062.6184,0.8573556,1.030802,2588.3481,23.07113,23.07,3.0333564,1.28125,99564.055,56.469997,99557.61,38.78
10min_square_0,1970-01-01 00:18:42,25.955322,26.216185,25.44188,3077.0168,0.8567052,1.0315316,2588.1873,23.084778,23.08,3.0092106,1.28125,99561.8,56.48,99559.73,38.78
10min_square_0,1970-01-01 00:18:44,26.535889,26.199162,26.13917,3091.43,0.8560543,1.0309356,2587.7837,23.077644,23.06625,2.9852571,1.28125,99561.586,56.469997,99556.625,38.76
10min_square_0,1970-01-01 00:18:46,26.746094,26.19128,26.060516,3105.9604,0.8553992,1.0311643,2586.538,23.074713,23.06,2.9614944,1.28125,99560.58,56.46,99558.96,38.739998
10min_square_0,1970-01-01 00:18:48,26.796143,26.234291,27.257143,3121.2012,0.8547141,1.0307662,2580.2288,23.048027,23.051249,2.9379208,1.28125,99557.68,56.469997,99556.12,38.71
10min_square_0,1970-01-01 00:18:50,25.785156,26.256603,26.356993,3136.147,0.85404146,1.0317136,2576.2095,23.053116,23.06625,2.9145348,1.28125,99553.125,56.48,99550.71,38.68
10min_square_0,1970-01-01 00:18:52,25.950317,26.245958,25.938335,3150.6663,0.85338646,1.0318898,2575.2432,23.061605,23.0625,2.891335,1.28125,99555.55,56.48,99552.5,38.64
10min_square_0,1970-01-01 00:18:54,25.489868,26.252144,26.122396,3163.9365,0.8527887,1.0319026,2572.9243,23.055788,23.06875,2.8683197,1.28125,99556.26,56.449997,99553.68,38.61
10min_square_0,1970-01-01 00:18:56,35.23938,26.237387,27.48956,3178.6633,0.8521249,1.0306859,2570.458,23.042912,22.88125,2.8454878,1.28125,99562.51,56.46,99559.41,38.579998
10min_square_0,1970-01-01 00:18:58,25.880249,26.237715,25.879393,3193.7961,0.8514436,1.0322524,2570.1997,23.054998,23.05625,2.8228376,1.28125,99555.3,56.469997,99551.14,38.55
10min_square_0,1970-01-01 00:19:00,25.619995,26.203543,25.154352,3207.9604,0.8508044,1.0327058,2571.6638,23.066286,23.06,2.8003676,1.28125,99553.66,56.46,99550.94,38.52
10min_square_0,1970-01-01 00:19:02,25.274658,26.195019,26.02399,3222.4624,0.8501516,1.0321059,2570.593,23.054043,23.0625,2.7780766,1.28125,99551.76,56.449997,99551.97,38.489998
10min_square_0,1970-01-01 00:19:04,26.595947,26.197945,26.516657,3237.1716,0.8494904,1.0320053,2568.0486,23.041584,23.035,2.755963,1.28125,99558.53,56.46,99557.914,38.46
10min_square_0,1970-01-01 00:19:06,27.576904,26.225548,27.082016,3252.23,0.84881395,1.0318921,2563.117,23.027239,23.01375,2.7340257,1.28125,99560.234,56.469997,99556.11,38.46
10min_square_0,1970-01-01 00:19:08,26.150513,26.22791,26.20381,3266.8784,0.8481551,1.0326174,2561.1755,23.036842,23.04125,2.7122626,1.28125,99557.805,56.44,99557.805,38.469997
10min_square_0,1970-01-01 00:19:10,25.715088,26.226477,25.99999,3280.0293,0.8475637,1.0328742,2559.6138,23.037031,23.0425,2.6906729,1.28125,99558.79,56.44,99554.64,38.469997
10min_square_0,1970-01-01 00:19:12,26.175537,26.229822,26.49504,3294.7383,0.8469024,1.0325918,2557.2017,23.028696,23.03125,2.6692548,1.28125,99560.914,56.469997,99555.836,38.48
10min_square_0,1970-01-01 00:19:14,27.7771,26.250122,26.829613,3309.7231,0.8462293,1.0326614,2552.8865,23.017054,22.99625,2.6480074,1.28125,99562.69,56.469997,99560.805,38.48
10min_square_0,1970-01-01 00:19:16,25.40979,26.26923,26.11213,3325.332,0.84552807,1.0334367,2549.378,23.020708,23.03875,2.632183,1.28125,99559.35,56.469997,99559.555,38.469997
10min_square_0,1970-01-01 00:19:18,25.675049,26.25442,25.834984,3339.7988,0.84487695,1.0335,2548.7976,23.027565,23.03125,2.6060188,1.28125,99562.55,56.449997,99558.98,38.46
10min_square_0,1970-01-01 00:19:20,25.42981,26.232573,25.476934,3354.1426,0.84423167,1.0337658,2549.0151,23.032183,23.035,2.5852747,1.28125,99560.39,56.449997,99558.79,38.45
10min_square_0,1970-01-01 00:19:22,26.435791,26.228851,26.376945,3368.77,0.8435744,1.0332096,2547.1965,23.017994,23.012499,2.5646958,1.28125,99560.836,56.46,99559.46,38.43
10min_square_0,1970-01-01 00:19:24,26.080444,26.220821,26.071115,3383.293,0.8429219,1.0336716,2546.073,23.016527,23.015,2.5442808,1.28125,99553.03,56.46,99549.4,38.39
10min_square_0,1970-01-01 00:19:26,25.82019,26.216852,25.845268,3397.8813,0.8422665,1.0340278,2544.5283,23.015106,23.01875,2.524028,1.28125,99552.14,56.44,99552.64,38.37
10min_square_0,1970-01-01 00:19:28,26.205566,26.207792,25.85868,3412.4106,0.841614,1.0340751,2543.3594,23.013613,23.0075,2.5039368,1.28125,99554.44,56.449997,99552.93,38.35
10min_square_0,1970-01-01 00:19:30,26.781128,26.231018,26.88812,3425.935,0.84100765,1.03354,2539.17,22.995047,22.99125,2.4840055,1.28125,99561.41,56.46,99559.12,38.32
10min_square_0,1970-01-01 00:19:32,26.816162,26.268532,27.102674,3441.1255,0.8403274,1.0337099,2533.494,22.9847,22.98625,2.4642327,1.28125,99553.5,56.46,99552.16,38.309998
10min_square_0,1970-01-01 00:19:34,24.994385,26.237047,24.944649,3456.0398,0.8396568,1.0351288,2534.8547,23.016817,23.0225,2.444617,1.28125,99550.26,56.44,99549.91,38.28
10min_square_0,1970-01-01 00:19:36,24.508911,26.188797,25.030296,3469.991,0.8390289,1.0348434,2537.711,23.020802,23.03125,2.4251578,1.28125,99550.64,56.44,99552.516,38.239998
10min_square_0,1970-01-01 00:19:38,25.424805,26.145403,25.300837,3484.0234,0.8383983,1.0346988,2539.827,23.016006,23.01125,2.4058535,1.28125,99560.734,56.46,99558.54,38.219997
10min_square_0,1970-01-01 00:19:40,25.700073,26.126719,25.453863,3495.45,0.8378856,1.034842,2540.0322,23.008127,23.002499,2.3914762,1.28125,99558.66,56.449997,99558.16,38.219997
10min_square_0,1970-01-01 00:19:42,24.719116,26.078583,24.963211,3512.2524,0.8371307,1.0352277,2542.6094,23.013992,23.0175,2.3677046,1.28125,99557.87,56.44,99555.73,38.23
10min_square_0,1970-01-01 00:19:44,26.410767,26.059898,25.787188,3526.601,0.83648753,1.0347679,2542.1448,22.99983,22.98375,2.3488576,1.28125,99558.586,56.44,99554.82,38.23
10min_square_0,1970-01-01 00:19:46,25.815186,26.050444,25.954308,3541.0037,0.8358422,1.0348605,2541.2192,22.992691,22.99,2.3301604,1.28125,99558.12,56.44,99555.51,38.219997
10min_square_0,1970-01-01 00:19:48,24.799194,26.081375,26.753094,3554.5132,0.83523846,1.0347363,2536.5754,22.97158,23.00375,2.311612,1.28125,99559.36,56.449997,99558.445,38.219997
10min_square_0,1970-01-01 00:19:50,26.335693,26.105883,26.63612,3569.4722,0.8345693,1.0351319,2531.8708,22.966005,22.971249,2.2932112,1.28125,99563.98,56.43,99557.71,38.219997
10min_square_0,1970-01-01 00:19:52,25.85022,26.096231,25.611448,3584.634,0.8338893,1.0358754,2530.8357,22.979687,22.97875,2.2749572,1.28125,99558.945,56.43,99558.555,38.21
10min_square_0,1970-01-01 00:19:54,24.704102,26.089758,25.541477,3599.0942,0.83324116,1.0359558,2529.7166,22.979942,22.9975,2.2568486,1.28125,99562.82,56.449997,99557.484,38.19
10min_square_0,1970-01-01 00:19:56,26.575928,26.08375,26.265411,3613.6304,0.83258986,1.0354731,2527.9585,22.969292,22.96,2.238884,1.28125,99557.86,56.46,99559.12,38.17
10min_square_0,1970-01-01 00:19:58,26.856201,26.101181,26.436266,3628.4612,0.8319267,1.0356604,2524.2073,22.959871,22.94875,2.2210624,1.28125,99560.21,56.46,99556.11,38.149998
10min_square_0,1970-01-01 00:20:00,25.950317,26.101511,26.01618,3643.0215,0.83127457,1.0361438,2522.3716,22.961391,22.9625,2.2033827,1.28125,99556.48,56.449997,99553.46,38.129997
10min_square_0,1970-01-01 00:20:02,25.880249,26.094473,25.87361,3657.498,0.8306259,1.0363367,2521.0952,22.96125,22.955,2.1858437,1.28125,99556.875,56.43,99556.016,38.1
10min_square_0,1970-01-01 00:20:04,26.285645,26.092247,26.260157,3672.048,0.8299741,1.0361166,2519.253,22.954697,22.95125,2.1684444,1.28125,99560.18,56.43,99559.16,38.079998
10min_square_0,1970-01-01 00:20:06,26.08545,26.110762,26.40144,3685.4192,0.82937646,1.036348,2515.6958,22.945158,22.949999,2.1511836,1.28125,99558.836,56.449997,99555.73,38.07
10min_square_0,1970-01-01 00:20:08,24.143555,26.093445,24.908182,3699.7083,0.8287362,1.0375541,2515.7922,22.96236,22.9825,2.1340601,1.28125,99550.97,56.43,99550.6,38.04
10min_square_0,1970-01-01 00:20:10,24.974365,26.025854,24.619844,3713.3438,0.8281227,1.0374243,2520.2864,22.973976,22.965,2.121307,1.28125,99552.48,56.43,99550.85,38.01
10min_square_0,1970-01-01 00:20:12,25.589966,26.002228,25.60883,3728.284,0.82745326,1.0368752,2520.4133,22.956863,22.9525,2.1002207,1.28125,99556.836,56.449997,99556.195,37.98
10min_square_0,1970-01-01 00:20:14,26.370728,26.004314,26.075184,3741.4033,0.8268666,1.0368599,2518.2742,22.943228,22.932499,2.083503,1.28125,99559.484,56.449997,99558.61,37.98
10min_square_0,1970-01-01 00:20:16,26.365723,26.038507,26.676027,3757.8728,0.82613134,1.0367858,2512.7383,22.926893,22.93,2.0669181,1.28125,99558.93,56.43,99556.93,37.989998
10min_square_0,1970-01-01 00:20:18,25.259644,26.029432,25.600904,3772.2627,0.8254873,1.0375941,2511.8662,22.940664,22.949999,2.0545661,1.28125,99557.94,56.43,99551.984,38.01
10min_square_0,1970-01-01 00:20:20,24.674072,25.999168,25.190756,3786.3562,0.8248557,1.0377778,2512.973,22.948772,22.96,2.0341434,1.28125,99557.016,56.44,99553.914,38.02
10min_square_0,1970-01-01 00:20:22,26.295654,25.996801,26.137789,3800.887,0.8242061,1.0372937,2510.9102,22.931427,22.922499,2.0179517,1.28125,99560.47,56.42,99554.89,38.02
10min_square_0,1970-01-01 00:20:24,27.066406,26.024017,26.608688,3814.3704,0.8236047,1.0373006,2506.3108,22.917141,22.90625,2.0018888,1.28125,99560.16,56.42,99559.93,38.02
10min_square_0,1970-01-01 00:20:26,25.059448,26.003115,24.873604,3828.5571,0.82296973,1.0386947,2506.7737,22.937363,22.94125,1.9859536,1.28125,99561.83,56.449997,99558.445,38.01
10min_square_0,1970-01-01 00:20:28,26.400757,25.95563,25.616837,3842.439,0.8223469,1.0377998,2509.1917,22.935486,22.9125,1.9701453,1.28125,99560.05,56.44,99558.64,38
10min_square_0,1970-01-01 00:20:30,26.931274,25.979156,26.766855,3858.012,0.8216523,1.0374527,2504.7039,22.908918,22.89875,1.9544629,1.28125,99559.85,56.44,99556.29,37.98
10min_square_0,1970-01-01 00:20:32,27.231567,26.012728,26.731785,3873.0107,0.82098365,1.0379164,2499.385,22.899376,22.887499,1.9389052,1.28125,99557.35,56.42,99554.516,37.96
10min_square_0,1970-01-01 00:20:34,25.735107,26.01553,25.691986,3887.5425,0.820334,1.0388209,2497.4253,22.909935,22.91125,1.9234715,1.28125,99557.04,56.43,99555.195,37.94
10min_square_0,1970-01-01 00:20:36,25.529907,25.987988,25.605186,3901.6748,0.8197008,1.0387048,2498.1768,22.915186,22.91375,1.9081606,1.28125,99554.68,56.43,99552.04,37.91
10min_square_0,1970-01-01 00:20:38,26.100464,25.983227,25.884636,3916.1382,0.8190545,1.0387363,2496.5542,22.906084,22.901249,1.8929715,1.28125,99554.625,56.43,99551.195,37.879997
10min_square_0,1970-01-01 00:20:40,25.980347,26.00175,26.5952,3930.9077,0.81839556,1.0384609,2492.7952,22.891048,22.8975,1.8779032,1.28125,99556.46,56.44,99554.016,37.87
10min_square_0,1970-01-01 00:20:42,25.134521,26.005478,25.694202,3945.4678,0.8177459,1.0393566,2490.6216,22.897665,22.9125,1.862955,1.28125,99551.11,56.44,99548.805,37.85
10min_square_0,1970-01-01 00:20:44,25.64502,25.974926,25.416437,3958.1194,0.8171793,1.039391,2491.72,22.90521,22.89875,1.8592366,1.28125,99553.22,56.43,99549.05,37.84
10min_square_0,1970-01-01 00:20:46,26.120483,25.97117,26.05815,3972.592,0.816533,1.0390555,2490.0173,22.893602,22.887499,1.8334147,1.28125,99547.04,56.43,99546.78,37.79
10min_square_0,1970-01-01 00:20:48,26.01538,26.00816,26.892712,3988.3457,0.8158317,1.0388826,2484.3677,22.872505,22.883749,1.8224581,1.28125,99561.555,56.41,99558.11,37.78
10min_square_0,1970-01-01 00:20:50,27.456787,26.07178,27.53346,4003.8208,0.8151436,1.0388718,2475.9539,22.853533,22.85,1.8043427,1.28125,99560.195,56.41,99558.6,37.79
10min_square_0,1970-01-01 00:20:52,25.029419,26.08347,25.686588,4018.4883,0.81448907,1.040409,2473.319,22.87395,22.8925,1.78998,1.28125,99557.35,56.43,99556.01,37.8
10min_square_0,1970-01-01 00:20:54,26.615967,26.084703,26.486124,4033.1157,0.8138353,1.0396417,2470.917,22.867413,22.86125,1.7757317,1.28125,99558.83,56.43,99557.33,37.82
10min_square_0,1970-01-01 00:20:56,26.47583,26.093605,26.488876,4047.81,0.8131798,1.0398405,2468.1128,22.862806,22.85875,1.7615968,1.28125,99560.1,56.41,99557.98,37.829998
10min_square_0,1970-01-01 00:20:58,27.15149,26.13462,27.378948,4062.9875,0.8125039,1.039505,2462.0715,22.84374,22.84125,1.7475744,1.28125,99561.086,56.41,99558.94,37.84
10min_square_0,1970-01-01 00:21:00,25.920288,26.144306,25.881235,4077.695,0.8118475,1.0408435,2459.4043,22.858238,22.86125,1.7336636,1.28125,99562.18,56.42,99559.91,37.84
10min_square_0,1970-01-01 00:21:02,24.388794,26.103958,24.693933,4090.2244,0.811286,1.041531,2461.7827,22.87826,22.88875,1.7198634,1.28125,99562.875,56.43,99559.375,37.84
10min_square_0,1970-01-01 00:21:04,24.939331,26.048143,24.861364,4104.0264,0.8106672,1.0411859,2465.0623,22.881063,22.877499,1.7061732,1.28125,99560.98,56.41,99557.78,37.85
10min_square_0,1970-01-01 00:21:06,26.020386,26.04473,26.014368,4119.287,0.80998653,1.0406898,2463.1106,22.857737,22.85375,1.692592,1.28125,99558.195,56.41,99554.87,37.84
10min_square_0,1970-01-01 00:21:08,25.80017,26.042784,26.090286,4129.4365,0.8095337,1.0407908,2461.959,22.853163,22.85375,1.6791189,1.28125,99562.43,56.42,99558.78,37.84
10min_square_0,1970-01-01 00:21:10,25.114502,26.003109,25.235447,4147.7627,0.8087143,1.0414708,2463.3416,22.863379,22.865,1.6657531,1.28125,99553.82,56.42,99552.984,37.829998
10min_square_0,1970-01-01 00:21:12,25.82019,25.975298,25.293068,4161.91,0.8080821,1.0415283,2463.9128,22.860344,22.85,1.6524936,1.28125,99554.39,56.43,99553.9,37.829998
10min_square_0,1970-01-01 00:21:14,24.874268,25.970966,25.637215,4176.3296,0.80743915,1.0415113,2462.541,22.850407,22.863749,1.6393397,1.28125,99561.33,56.42,99559.16,37.84
10min_square_0,1970-01-01 00:21:16,26.741089,26.0033,26.621485,4191.3574,0.80677116,1.0410888,2457.0981,22.830463,22.82625,1.6262906,1.28125,99554.555,56.42,99555.734,37.85
10min_square_0,1970-01-01 00:21:18,25.910278,25.98041,25.509905,4205.531,0.80613846,1.041899,2457.4866,22.845438,22.838749,1.6133453,1.28125,99550.28,56.43,99549.86,37.85
10min_square_0,1970-01-01 00:21:20,25.454834,25.973461,25.58317,4215.577,0.8056904,1.0419179,2456.8625,22.842808,22.842499,1.600503,1.28125,99552.48,56.43,99549.72,37.84
10min_square_0,1970-01-01 00:21:22,26.490845,25.960796,26.11753,4232.832,0.804921,1.0416201,2455.5156,22.83353,22.821249,1.5877628,1.28125,99556.8,56.41,99554.78,37.84
10min_square_0,1970-01-01 00:21:24,27.146484,26.007898,27.388634,4248.7466,0.8042143,1.041126,2448.8025,22.806606,22.80625,1.575124,1.28125,99559.66,56.42,99556.805,37.87
10min_square_0,1970-01-01 00:21:26,27.176514,26.038967,27.188131,4259.357,0.8037432,1.041582,2444.4482,22.802277,22.79875,1.5719801,1.28125,99558.65,56.42,99553.76,37.879997
10min_square_0,1970-01-01 00:21:28,26.523377,26.0439155,26.549936,4270.32035,0.8032548,1.04207885,2442.62215,22.8101665,22.808125,1.5548943,1.28125,99557.96,56.42,99555.19,37.91
10min_square_0,1970-01-01 00:21:30,25.87024,26.048864,25.911741,4281.2837,0.8027664,1.0425757,2440.7961,22.818056,22.8175,1.5378085,1.28125,99558.76,56.42,99555.15,37.93
10min_square_0,1970-01-01 00:21:32,22.947388,26.05513,26.455421,4306.017,0.8016643,1.0423034,2437.4062,22.80791,22.859999,1.5255675,1.28125,99556.62,56.41,99553.44,38
10min_square_0,1970-01-01 00:21:34,26.390747,26.068926,26.873856,4322.3115,0.8009396,1.042346,2433.2747,22.79439,22.797499,1.513424,1.28125,99559.62,56.43,99558.37,38.04
10min_square_0,1970-01-01 00:21:36,25.544922,26.055584,25.49165,4336.6606,0.8002999,1.0435262,2432.731,22.809168,22.8125,1.5013771,1.28125,99559.86,56.42,99557.234,38.07
10min_square_0,1970-01-01 00:21:38,27.046387,26.0739,27.323809,4350.055,0.79970366,1.0421219,2428.935,22.78597,22.779999,1.4894261,1.28125,99561.75,56.42,99558.734,38.1
10min_square_0,1970-01-01 00:21:40,27.281616,26.128626,27.60615,4365.407,0.79902273,1.0424812,2421.751,22.769363,22.77125,1.4775703,1.28125,99555.414,56.42,99554.97,38.129997
10min_square_0,1970-01-01 00:21:42,26.060425,26.160131,26.567265,4381.144,0.79832286,1.0435374,2416.947,22.776648,22.785,1.4658087,1.28125,99552.66,56.43,99550.86,38.14
10min_square_0,1970-01-01 00:21:44,25.554932,26.130558,25.34369,4395.323,0.79768914,1.044265,2417.8494,22.796926,22.795,1.4541408,1.28125,99546.62,56.43,99545.97,38.14
10min_square_0,1970-01-01 00:21:46,25.58496,26.09927,25.43426,4409.4727,0.7970573,1.0441167,2418.8193,22.797558,22.79125,1.4425658,1.28125,99547.125,56.42,99545.61,38.129997
10min_square_0,1970-01-01 00:21:48,27.707031,26.11855,27.238937,4424.38,0.7963948,1.0429585,2414.6367,22.76958,22.75375,1.431083,1.28125,99557.64,56.42,99555.72,38.129997
10min_square_0,1970-01-01 00:21:50,26.666016,26.180254,27.220217,4439.825,0.79571086,1.0436001,2407.0798,22.755642,22.762499,1.4196914,1.28125,99552.66,56.43,99551.78,38.129997
10min_square_0,1970-01-01 00:21:52,27.10144,26.18876,26.288502,4454.5796,0.79505455,1.044277,2404.2354,22.768314,22.7575,1.4083905,1.28125,99549.375,56.44,99548.26,38.129997
10min_square_0,1970-01-01 00:21:54,25.564941,26.156216,25.316849,4468.7026,0.7944242,1.0448318,2405.5938,22.784954,22.7825,1.3971798,1.28125,99548.68,56.44,99551.32,38.11
10min_square_0,1970-01-01 00:21:56,25.710083,26.137524,25.555248,4481.5894,0.79385006,1.0446705,2405.5442,22.781439,22.77875,1.3860582,1.28125,99550.516,56.42,99553.43,38.079998
10min_square_0,1970-01-01 00:21:58,21.000488,26.151104,25.397821,4496.248,0.7931994,1.0453362,2403.1912,22.771162,22.856249,1.3750252,1.28125,99563.66,56.43,99562.08,38.09
10min_square_0,1970-01-01 00:22:00,26.385742,26.12211,26.196228,4510.5825,0.79256064,1.0445095,2402.9275,22.765835,22.7575,1.3640798,1.28125,99579.64,56.43,99577.07,38.12
10min_square_0,1970-01-01 00:22:02,26.23059,26.131174,26.266811,4526.029,0.79187506,1.0447636,2400.0464,22.75799,22.75625,1.3532218,1.28125,99592.164,56.43,99590.086,38.149998
10min_square_0,1970-01-01 00:22:04,27.046387,26.122835,26.22946,4540.5273,0.7912302,1.044819,2398.706,22.757866,22.74,1.3424501,1.28125,99606.22,56.41,99607.97,38.2
10min_square_0,1970-01-01 00:22:06,25.8302,26.1559,26.131508,4555.558,0.79056454,1.0454499,2393.887,22.746595,22.75625,1.3317642,1.28125,99622.66,56.44,99620.68,38.239998
10min_square_0,1970-01-01 00:22:08,10.064819,25.889,13.9766245,4565.9614,0.7900877,1.0541532,2420,22.916965,23.05625,1.3211634,1.28125,99629.47,56.44,99626.734,38.28
10min_square_0,1970-01-01 00:22:10,0.9659424,24.964714,1.4588597,4566.999,0.7899765,1.0585907,2511.0007,23.194677,23.262499,1.3106468,1.28125,99628.414,56.42,99627.03,38.309998
10min_square_0,1970-01-01 00:22:12,0.94091797,24.024122,0.96452606,4567.531,0.7899,1.0558848,2609.0564,23.269058,23.289999,1.3002139,1.28125,99628.055,56.42,99628.14,38.34
10min_square_0,1970-01-01 00:22:14,0.94091797,23.658306,0.96488994,4567.961,0.78984797,1.0547142,2644.1438,23.294909,23.30875,1.2950287,1.28125,99627.3,56.42,99628.97,38.37
10min_square_1,1970-01-01 00:18:12,1.0560303,14.83385,1.0526987,285.17236,0.61451405,1.0940353,3287.0706,22.453981,22.453749,15,1.28125,99608.3,56.73,99614.04,44.67
10min_square_1,1970-01-01 00:18:14,10.630371,14.418032,7.64436,287.77615,0.6143945,1.0894505,3376.714,22.35086,22.2375,14.8806,1.28125,99606.61,56.57,99608.914,44.67
10min_square_1,1970-01-01 00:18:16,30.279541,14.659152,26.64342,299.77682,0.61391175,1.0802859,3309.7834,21.972448,21.77375,14.76215,1.28125,99602.66,56.469997,99607.11,44.69
10min_square_1,1970-01-01 00:18:18,26.150513,15.113619,27.644257,312.6698,0.61339134,1.085468,3209.6804,21.833708,21.828749,14.644642,1.28125,99584.375,56.64,99587.516,44.69
10min_square_1,1970-01-01 00:18:20,46.875732,15.792252,37.67074,333.0546,0.6125309,1.0796249,3059.893,21.655567,21.359999,14.52807,1.28125,99570.664,56.73,99573.87,44.69
10min_square_1,1970-01-01 00:18:22,24.854248,16.26626,24.877924,348.05505,0.6118876,1.092295,2976.1284,21.77505,21.8,14.412426,1.28125,99533.86,56.61,99535.625,44.69
10min_square_1,1970-01-01 00:18:24,27.762085,16.678736,27.333931,363.10046,0.6112246,1.0902961,2898.5928,21.742659,21.7225,14.297703,1.28125,99529.85,56.469997,99530.22,44.68
10min_square_1,1970-01-01 00:18:26,24.809204,17.033775,25.672483,376.46338,0.6106348,1.0926225,2836.6145,21.744461,21.766249,14.183893,1.28125,99528.28,56.6,99528.51,44.67
10min_square_1,1970-01-01 00:18:28,26.440796,17.399052,26.586172,391.22653,0.6099747,1.0923638,2773.7107,21.722383,21.71625,14.09913,1.28125,99530.44,56.75,99529.53,44.64
10min_square_1,1970-01-01 00:18:30,26.90625,17.770966,26.718903,406.75647,0.6092761,1.093051,2712.5823,21.704245,21.68875,13.9589815,1.28125,99525.3,56.649998,99527.22,44.61
10min_square_1,1970-01-01 00:18:32,26.66101,18.13163,26.876186,421.81778,0.60859597,1.0938917,2655.8884,21.68223,21.67875,13.847867,1.28125,99527.914,56.48,99529.375,44.559998
10min_square_1,1970-01-01 00:18:34,27.491821,18.499495,27.65606,437.21347,0.60789734,1.0941986,2600.0059,21.652525,21.64375,13.737637,1.28125,99527.62,56.539997,99531.11,44.51
10min_square_1,1970-01-01 00:18:36,24.824219,18.809967,25.856133,451.90332,0.6072203,1.096196,2555.0908,21.665558,21.689999,13.628284,1.28125,99525.484,56.739998,99525.08,44.45
10min_square_1,1970-01-01 00:18:38,23.217651,18.988176,24.25937,462.79456,0.60670704,1.0973308,2529.4604,21.690252,21.715,13.519803,1.28125,99523.65,56.68,99525.55,44.41
10min_square_1,1970-01-01 00:18:40,25.339722,19.20091,23.988983,478.6252,0.6059533,1.0973659,2497.8447,21.697649,21.66375,13.412185,1.28125,99524.87,56.5,99525.805,44.35
10min_square_1,1970-01-01 00:18:42,25.780151,19.529194,27.649172,494.0489,0.60524267,1.0959289,2452.9744,21.617237,21.63625,13.305423,1.28125,99533.65,56.51,99533.734,44.3
10min_square_1,1970-01-01 00:18:44,27.97229,19.806925,27.869164,507.8766,0.60460025,1.0966995,2415.5679,21.594862,21.58125,13.199512,1.28125,99525.22,56.71,99528.75,44.25
10min_square_1,1970-01-01 00:18:46,26.736084,20.112732,27.208403,523.265,0.6038805,1.0981002,2376.4011,21.586075,21.595,13.094441,1.28125,99525.76,56.71,99528.39,44.18
10min_square_1,1970-01-01 00:18:48,27.116455,20.409817,27.511015,539.30914,0.6031235,1.0982141,2338.8777,21.57467,21.57625,12.990209,1.28125,99522.875,56.539997,99527.57,44.14
10min_square_1,1970-01-01 00:18:50,28.232544,20.705654,28.233114,554.9574,0.6023867,1.09829,2302.484,21.551464,21.5425,12.8868065,1.28125,99535.33,56.469997,99537.16,44.09
10min_square_1,1970-01-01 00:18:52,28.507812,21.013824,28.526648,570.9238,0.6016353,1.098818,2265.9187,21.531895,21.525,12.784227,1.28125,99524.12,56.66,99530.65,44.05
10min_square_1,1970-01-01 00:18:54,27.446777,21.297085,28.227264,586.67126,0.6008879,1.0995423,2233.3057,21.526129,21.53625,12.682464,1.28125,99522.86,56.73,99523.11,44
10min_square_1,1970-01-01 00:18:56,27.041382,21.543854,27.044487,602.0822,0.6001502,1.1008282,2205.1626,21.535477,21.54125,12.58151,1.28125,99522.64,56.559998,99523.39,43.95
10min_square_1,1970-01-01 00:18:58,28.512817,21.779985,28.123545,617.5248,0.59940803,1.100157,2178.323,21.51674,21.498749,12.48136,1.28125,99529.21,56.449997,99531.875,43.91
10min_square_1,1970-01-01 00:19:00,28.347656,22.04847,28.56104,633.5169,0.5986453,1.1006339,2149.16,21.493925,21.4925,12.382007,1.28125,99531.164,56.64,99530.6,43.89
10min_square_1,1970-01-01 00:19:02,28.302612,22.261385,28.172485,647.62885,0.5979661,1.1012974,2126.2502,21.492115,21.484999,12.283445,1.28125,99528.19,56.719997,99531.33,43.879997
10min_square_1,1970-01-01 00:19:04,28.472778,22.49089,28.179401,663.3393,0.597208,1.1015977,2101.9077,21.48582,21.47625,12.185669,1.28125,99530.51,56.579998,99534.12,43.87
10min_square_1,1970-01-01 00:19:06,28.242554,22.714338,28.127554,679.08466,0.5964473,1.1020685,2078.673,21.477833,21.471249,12.088671,1.28125,99529.91,56.449997,99532.5,43.86
10min_square_1,1970-01-01 00:19:08,29.07837,22.95007,28.683214,695.79614,0.5956393,1.102132,2054.4385,21.459877,21.44375,11.992444,1.28125,99533.14,56.61,99534.23,43.84
10min_square_1,1970-01-01 00:19:10,27.171509,23.134304,27.13677,711.1928,0.5948871,1.1037289,2035.8793,21.473978,21.475,11.896985,1.28125,99531.445,56.73,99536,43.82
10min_square_1,1970-01-01 00:19:12,25.890259,23.274702,26.456688,726.0835,0.59415,1.1042058,2021.3419,21.484753,21.4975,11.802284,1.28125,99530.305,56.61,99531.91,43.79
10min_square_1,1970-01-01 00:19:14,24.894287,23.397238,25.952496,740.807,0.5934194,1.1047806,2008.4769,21.48829,21.512499,11.708338,1.28125,99529.01,56.449997,99531.28,43.75
10min_square_1,1970-01-01 00:19:16,29.688965,23.542393,28.49179,756.073,0.59266686,1.1027523,1992.7781,21.453064,21.40375,11.615139,1.28125,99533.805,56.579998,99534.414,43.71
10min_square_1,1970-01-01 00:19:18,28.00232,23.7105,28.010677,771.5737,0.5919088,1.104047,1976.4342,21.441341,21.432499,11.522682,1.28125,99525.47,56.73,99524.695,43.66
